[{"AirportID":"1","Name":"Goroka Airport","City":"Goroka","Country":"Papua New Guinea","ICAO":"AYGA","Latitude":-6.081689834590001,"Longitude":145.391998291,"Altitude":5282,"Timezone":"","DST":"U","TZ":"Pacific/Port_Moresby","Type":"airport","Source":"OurAirports"},{"AirportID":"2","Name":"Madang Airport","City":"Madang","Country":"Papua New Guinea","ICAO":"AYMD","Latitude":-5.20707988739,"Longitude":145.789001465,"Altitude":20,"Timezone":"","DST":"U","TZ":"Pacific/Port_Moresby","Type":"airport","Source":"OurAirports"},{"AirportID":"3","Name":"Mount Hagen Kagamuga Airport","City":"Mount Hagen","Country":"Papua New Guinea","ICAO":"AYMH","Latitude":-5.826789855957031,"Longitude":144.29600524902344,"Altitude":5388,"Timezone":"","DST":"U","TZ":"Pacific/Port_Moresby","Type":"airport","Source":"OurAirports"},{"AirportID":"4","Name":"Nadzab Airport","City":"Nadzab","Country":"Papua New Guinea","ICAO":"AYNZ","Latitude":-6.569803,"Longitude":146.725977,"Altitude":239,"Timezone":"","DST":"U","TZ":"Pacific/Port_Moresby","Type":"airport","Source":"OurAirports"},{"AirportID":"5","Name":"Port Moresby Jacksons International Airport","City":"Port Moresby","Country":"Papua New Guinea","ICAO":"AYPY","Latitude":-9.443380355834961,"Longitude":147.22000122070312,"Altitude":146,"Timezone":"","DST":"U","TZ":"Pacific/Port_Moresby","Type":"airport","Source":"OurAirports"},{"AirportID":"6","Name":"Wewak International Airport","City":"Wewak","Country":"Papua New Guinea","ICAO":"AYWK","Latitude":-3.58383011818,"Longitude":143.669006348,"Altitude":19,"Timezone":"","DST":"U","TZ":"Pacific/Port_Moresby","Type":"airport","Source":"OurAirports"},{"AirportID":"7","Name":"Narsarsuaq Airport","City":"Narssarssuaq","Country":"Greenland","ICAO":"BGBW","Latitude":61.1604995728,"Longitude":-45.4259986877,"Altitude":112,"Timezone":"","DST":"E","TZ":"America/Godthab","Type":"airport","Source":"OurAirports"},{"AirportID":"8","Name":"Godthaab / Nuuk Airport","City":"Godthaab","Country":"Greenland","ICAO":"BGGH","Latitude":64.19090271,"Longitude":-51.6781005859,"Altitude":283,"Timezone":"","DST":"E","TZ":"America/Godthab","Type":"airport","Source":"OurAirports"},{"AirportID":"9","Name":"Kangerlussuaq Airport","City":"Sondrestrom","Country":"Greenland","ICAO":"BGSF","Latitude":67.0122218992,"Longitude":-50.7116031647,"Altitude":165,"Timezone":"","DST":"E","TZ":"America/Godthab","Type":"airport","Source":"OurAirports"},{"AirportID":"","Name":"Thule Air Base","City":"Thule","Country":"Greenland","ICAO":"BGTL","Latitude":76.5311965942,"Longitude":-68.7032012939,"Altitude":251,"Timezone":"","DST":"E","TZ":"America/Thule","Type":"airport","Source":"OurAirports"},{"AirportID":"","Name":"Akureyri Airport","City":"Akureyri","Country":"Iceland","ICAO":"BIAR","Latitude":65.66000366210938,"Longitude":-18.07270050048828,"Altitude":6,"Timezone":"0","DST":"N","TZ":"Atlantic/Reykjavik","Type":"airport","Source":"OurAirports"},{"AirportID":"","Name":"Egilsstaðir Airport","City":"Egilsstadir","Country":"Iceland","ICAO":"BIEG","Latitude":65.2833023071289,"Longitude":-14.401399612426758,"Altitude":76,"Timezone":"0","DST":"N","TZ":"Atlantic/Reykjavik","Type":"airport","Source":"OurAirports"},{"AirportID":"","Name":"Hornafjörður Airport","City":"Hofn","Country":"Iceland","ICAO":"BIHN","Latitude":64.295601,"Longitude":-15.2272,"Altitude":24,"Timezone":"0","DST":"N","TZ":"Atlantic/Reykjavik","Type":"airport","Source":"OurAirports"},{"AirportID":"","Name":"Húsavík Airport","City":"Husavik","Country":"Iceland","ICAO":"BIHU","Latitude":65.952301,"Longitude":-17.426001,"Altitude":48,"Timezone":"0","DST":"N","TZ":"Atlantic/Reykjavik","Type":"airport","Source":"OurAirports"},{"AirportID":"","Name":"Ísafjörður Airport","City":"Isafjordur","Country":"Iceland","ICAO":"BIIS","Latitude":66.05809783935547,"Longitude":-23.135299682617188,"Altitude":8,"Timezone":"0","DST":"N","TZ":"Atlantic/Reykjavik","Type":"airport","Source":"OurAirports"},{"AirportID":"","Name":"Keflavik International Airport","City":"Keflavik","Country":"Iceland","ICAO":"BIKF","Latitude":63.985000610352,"Longitude":-22.605600357056,"Altitude":171,"Timezone":"0","DST":"N","TZ":"Atlantic/Reykjavik","Type":"airport","Source":"OurAirports"},{"AirportID":"","Name":"Patreksfjörður Airport","City":"Patreksfjordur","Country":"Iceland","ICAO":"BIPA","Latitude":65.555801,"Longitude":-23.965,"Altitude":11,"Timezone":"0","DST":"N","TZ":"Atlantic/Reykjavik","Type":"airport","Source":"OurAirports"},{"AirportID":"","Name":"Reykjavik Airport","City":"Reykjavik","Country":"Iceland","ICAO":"BIRK","Latitude":64.1299972534,"Longitude":-21.9405994415,"Altitude":48,"Timezone":"0","DST":"N","TZ":"Atlantic/Reykjavik","Type":"airport","Source":"OurAirports"},{"AirportID":"","Name":"Siglufjörður Airport","City":"Siglufjordur","Country":"Iceland","ICAO":"BISI","Latitude":66.133301,"Longitude":-18.9167,"Altitude":10,"Timezone":"0","DST":"N","TZ":"Atlantic/Reykjavik","Type":"airport","Source":"OurAirports"},{"AirportID":"","Name":"Vestmannaeyjar Airport","City":"Vestmannaeyjar","Country":"Iceland","ICAO":"BIVM","Latitude":63.42430114746094,"Longitude":-20.278900146484375,"Altitude":326,"Timezone":"0","DST":"N","TZ":"Atlantic/Reykjavik","Type":"airport","Source":"OurAirports"},{"AirportID":"","Name":"Sault Ste Marie Airport","City":"Sault Sainte Marie","Country":"Canada","ICAO":"CYAM","Latitude":46.48500061035156,"Longitude":-84.5093994140625,"Altitude":630,"Timezone":"","DST":"A","TZ":"America/Toronto","Type":"airport","Source":"OurAirports"},{"AirportID":"","Name":"Winnipeg / St. Andrews Airport","City":"Winnipeg","Country":"Canada","ICAO":"CYAV","Latitude":50.0564002991,"Longitude":-97.03250122070001,"Altitude":760,"Timezone":"","DST":"A","TZ":"America/Winnipeg","Type":"airport","Source":"OurAirports"},{"AirportID":"","Name":"Halifax / CFB Shearwater Heliport","City":"Halifax","Country":"Canada","ICAO":"CYAW","Latitude":44.6397018433,"Longitude":-63.499401092499994,"Altitude":144,"Timezone":"","DST":"A","TZ":"America/Halifax","Type":"airport","Source":"OurAirports"},{"AirportID":"","Name":"St. Anthony Airport","City":"St. Anthony","Country":"Canada","ICAO":"CYAY","Latitude":51.3918991089,"Longitude":-56.083099365200006,"Altitude":108,"Timezone":"3.","DST":"A","TZ":"America/St_Johns","Type":"airport","Source":"OurAirports"},{"AirportID":"","Name":"Tofino / Long Beach Airport","City":"Tofino","Country":"Canada","ICAO":"CYAZ","Latitude":49.079833,"Longitude":-125.775583,"Altitude":80,"Timezone":"","DST":"A","TZ":"America/Vancouver","Type":"airport","Source":"OurAirports"},{"AirportID":"","Name":"Kugaaruk Airport","City":"Pelly Bay","Country":"Canada","ICAO":"CYBB","Latitude":68.534401,"Longitude":-89.808098,"Altitude":56,"Timezone":"","DST":"A","TZ":"America/Edmonton","Type":"airport","Source":"OurAirports"},{"AirportID":"","Name":"Baie Comeau Airport","City":"Baie Comeau","Country":"Canada","ICAO":"CYBC","Latitude":49.13249969482422,"Longitude":-68.20439910888672,"Altitude":71,"Timezone":"","DST":"A","TZ":"America/Toronto","Type":"airport","Source":"OurAirports"},{"AirportID":"","Name":"CFB Bagotville","City":"Bagotville","Country":"Canada","ICAO":"CYBG","Latitude":48.33060073852539,"Longitude":-70.99639892578125,"Altitude":522,"Timezone":"","DST":"A","TZ":"America/Toronto","Type":"airport","Source":"OurAirports"},{"AirportID":"","Name":"Baker Lake Airport","City":"Baker Lake","Country":"Canada","ICAO":"CYBK","Latitude":64.29889678960001,"Longitude":-96.077796936,"Altitude":59,"Timezone":"","DST":"A","TZ":"America/Winnipeg","Type":"airport","Source":"OurAirports"},{"AirportID":"","Name":"Campbell River Airport","City":"Campbell River","Country":"Canada","ICAO":"CYBL","Latitude":49.950801849365234,"Longitude":-125.27100372314453,"Altitude":346,"Timezone":"","DST":"A","TZ":"America/Vancouver","Type":"airport","Source":"OurAirports"},{"AirportID":"","Name":"Brandon Municipal Airport","City":"Brandon","Country":"Canada","ICAO":"CYBR","Latitude":49.91,"Longitude":-99.951897,"Altitude":1343,"Timezone":"","DST":"A","TZ":"America/Winnipeg","Type":"airport","Source":"OurAirports"},{"AirportID":"","Name":"Cambridge Bay Airport","City":"Cambridge Bay","Country":"Canada","ICAO":"CYCB","Latitude":69.1081008911,"Longitude":-105.138000488,"Altitude":90,"Timezone":"","DST":"A","TZ":"America/Edmonton","Type":"airport","Source":"OurAirports"},{"AirportID":"","Name":"Nanaimo Airport","City":"Nanaimo","Country":"Canada","ICAO":"CYCD","Latitude":49.054970224899996,"Longitude":-123.869862556,"Altitude":92,"Timezone":"","DST":"A","TZ":"America/Vancouver","Type":"airport","Source":"OurAirports"},{"AirportID":"","Name":"Castlegar/West Kootenay Regional Airport","City":"Castlegar","Country":"Canada","ICAO":"CYCG","Latitude":49.2963981628,"Longitude":-117.632003784,"Altitude":1624,"Timezone":"","DST":"A","TZ":"America/Vancouver","Type":"airport","Source":"OurAirports"},{"AirportID":"","Name":"Miramichi Airport","City":"Chatham","Country":"Canada","ICAO":"CYCH","Latitude":47.007801,"Longitude":-65.449203,"Altitude":108,"Timezone":"","DST":"A","TZ":"America/Halifax","Type":"airport","Source":"OurAirports"},{"AirportID":"","Name":"Charlo Airport","City":"Charlo","Country":"Canada","ICAO":"CYCL","Latitude":47.990799,"Longitude":-66.330299,"Altitude":132,"Timezone":"","DST":"A","TZ":"America/Halifax","Type":"airport","Source":"OurAirports"},{"AirportID":"","Name":"Kugluktuk Airport","City":"Coppermine","Country":"Canada","ICAO":"CYCO","Latitude":67.81670379639999,"Longitude":-115.143997192,"Altitude":74,"Timezone":"","DST":"A","TZ":"America/Edmonton","Type":"airport","Source":"OurAirports"},{"AirportID":"","Name":"Coronation Airport","City":"Coronation","Country":"Canada","ICAO":"CYCT","Latitude":52.0750007629,"Longitude":-111.444999695,"Altitude":2595,"Timezone":"","DST":"A","TZ":"America/Edmonton","Type":"airport","Source":"OurAirports"},{"AirportID":"","Name":"Chilliwack Airport","City":"Chilliwack","Country":"Canada","ICAO":"CYCW","Latitude":49.1528015137,"Longitude":-121.939002991,"Altitude":32,"Timezone":"","DST":"A","TZ":"America/Vancouver","Type":"airport","Source":"OurAirports"},{"AirportID":"","Name":"Clyde River Airport","City":"Clyde River","Country":"Canada","ICAO":"CYCY","Latitude":70.4860992432,"Longitude":-68.5167007446,"Altitude":87,"Timezone":"","DST":"A","TZ":"America/Toronto","Type":"airport","Source":"OurAirports"},{"AirportID":"","Name":"Coral Harbour Airport","City":"Coral Harbour","Country":"Canada","ICAO":"CYZS","Latitude":64.1932983398,"Longitude":-83.3593978882,"Altitude":210,"Timezone":"","DST":"A","TZ":"America/Coral_Harbour","Type":"airport","Source":"OurAirports"},{"AirportID":"","Name":"Dawson City Airport","City":"Dawson","Country":"Canada","ICAO":"CYDA","Latitude":64.04309844970703,"Longitude":-139.1280059814453,"Altitude":1215,"Timezone":"","DST":"A","TZ":"America/Vancouver","Type":"airport","Source":"OurAirports"},{"AirportID":"","Name":"Burwash Airport","City":"Burwash","Country":"Canada","ICAO":"CYDB","Latitude":61.37110137939453,"Longitude":-139.04100036621094,"Altitude":2647,"Timezone":"","DST":"A","TZ":"America/Vancouver","Type":"airport","Source":"OurAirports"},{"AirportID":"","Name":"Princeton Airport","City":"Princeton","Country":"Canada","ICAO":"CYDC","Latitude":49.4681015015,"Longitude":-120.511001587,"Altitude":2298,"Timezone":"","DST":"A","TZ":"America/Vancouver","Type":"airport","Source":"OurAirports"},{"AirportID":"","Name":"Deer Lake Airport","City":"Deer Lake","Country":"Canada","ICAO":"CYDF","Latitude":49.21080017089844,"Longitude":-57.39139938354492,"Altitude":72,"Timezone":"3.","DST":"A","TZ":"America/St_Johns","Type":"airport","Source":"OurAirports"},{"AirportID":"","Name":"Dease Lake Airport","City":"Dease Lake","Country":"Canada","ICAO":"CYDL","Latitude":58.4221992493,"Longitude":-130.031997681,"Altitude":2600,"Timezone":"","DST":"A","TZ":"America/Vancouver","Type":"airport","Source":"OurAirports"},{"AirportID":"","Name":"Dauphin Barker Airport","City":"Dauphin","Country":"Canada","ICAO":"CYDN","Latitude":51.100799560546875,"Longitude":-100.052001953125,"Altitude":999,"Timezone":"","DST":"A","TZ":"America/Winnipeg","Type":"airport","Source":"OurAirports"},{"AirportID":"","Name":"Dawson Creek Airport","City":"Dawson Creek","Country":"Canada","ICAO":"CYDQ","Latitude":55.7422981262207,"Longitude":-120.18299865722656,"Altitude":2148,"Timezone":"","DST":"A","TZ":"America/Dawson_Creek","Type":"airport","Source":"OurAirports"},{"AirportID":"","Name":"Edmonton International Airport","City":"Edmonton","Country":"Canada","ICAO":"CYEG","Latitude":53.309700012200004,"Longitude":-113.580001831,"Altitude":2373,"Timezone":"","DST":"A","TZ":"America/Edmonton","Type":"airport","Source":"OurAirports"},{"AirportID":"","Name":"Arviat Airport","City":"Eskimo Point","Country":"Canada","ICAO":"CYEK","Latitude":61.0942001343,"Longitude":-94.07080078119999,"Altitude":32,"Timezone":"","DST":"A","TZ":"America/Winnipeg","Type":"airport","Source":"OurAirports"},{"AirportID":"","Name":"Estevan Airport","City":"Estevan","Country":"Canada","ICAO":"CYEN","Latitude":49.2103004456,"Longitude":-102.966003418,"Altitude":1905,"Timezone":"","DST":"N","TZ":"America/Regina","Type":"airport","Source":"OurAirports"},{"AirportID":"","Name":"Edson Airport","City":"Edson","Country":"Canada","ICAO":"CYET","Latitude":53.578899383499994,"Longitude":-116.464996338,"Altitude":3043,"Timezone":"","DST":"A","TZ":"America/Edmonton","Type":"airport","Source":"OurAirports"},{"AirportID":"","Name":"Eureka Airport","City":"Eureka","Country":"Canada","ICAO":"CYEU","Latitude":79.9946975708,"Longitude":-85.814201355,"Altitude":256,"Timezone":"","DST":"A","TZ":"America/Winnipeg","Type":"airport","Source":"OurAirports"},{"AirportID":"","Name":"Inuvik Mike Zubko Airport","City":"Inuvik","Country":"Canada","ICAO":"CYEV","Latitude":68.30419921880001,"Longitude":-133.483001709,"Altitude":224,"Timezone":"","DST":"A","TZ":"America/Edmonton","Type":"airport","Source":"OurAirports"},{"AirportID":"","Name":"Iqaluit Airport","City":"Iqaluit","Country":"Canada","ICAO":"CYFB","Latitude":63.756401062,"Longitude":-68.5558013916,"Altitude":110,"Timezone":"","DST":"A","TZ":"America/Toronto","Type":"airport","Source":"OurAirports"},{"AirportID":"","Name":"Fredericton Airport","City":"Fredericton","Country":"Canada","ICAO":"CYFC","Latitude":45.868900299072266,"Longitude":-66.53720092773438,"Altitude":68,"Timezone":"","DST":"A","TZ":"America/Halifax","Type":"airport","Source":"OurAirports"},{"AirportID":"","Name":"Forestville Airport","City":"Forestville","Country":"Canada","ICAO":"CYFE","Latitude":48.74610137939453,"Longitude":-69.09719848632812,"Altitude":293,"Timezone":"","DST":"A","TZ":"America/Toronto","Type":"airport","Source":"OurAirports"},{"AirportID":"","Name":"Flin Flon Airport","City":"Flin Flon","Country":"Canada","ICAO":"CYFO","Latitude":54.6781005859375,"Longitude":-101.68199920654297,"Altitude":997,"Timezone":"","DST":"A","TZ":"America/Winnipeg","Type":"airport","Source":"OurAirports"},{"AirportID":"","Name":"Fort Resolution Airport","City":"Fort Resolution","Country":"Canada","ICAO":"CYFR","Latitude":61.1808013916,"Longitude":-113.690002441,"Altitude":526,"Timezone":"","DST":"A","TZ":"America/Edmonton","Type":"airport","Source":"OurAirports"},{"AirportID":"","Name":"Fort Simpson Airport","City":"Fort Simpson","Country":"Canada","ICAO":"CYFS","Latitude":61.76020050048828,"Longitude":-121.23699951171875,"Altitude":555,"Timezone":"","DST":"A","TZ":"America/Edmonton","Type":"airport","Source":"OurAirports"},{"AirportID":"","Name":"Kingston Norman Rogers Airport","City":"Kingston","Country":"Canada","ICAO":"CYGK","Latitude":44.22529983520508,"Longitude":-76.5969009399414,"Altitude":305,"Timezone":"","DST":"A","TZ":"America/Toronto","Type":"airport","Source":"OurAirports"},{"AirportID":"","Name":"La Grande Rivière Airport","City":"La Grande Riviere","Country":"Canada","ICAO":"CYGL","Latitude":53.625301361083984,"Longitude":-77.7042007446289,"Altitude":639,"Timezone":"","DST":"A","TZ":"America/Toronto","Type":"airport","Source":"OurAirports"},{"AirportID":"","Name":"Gaspé (Michel-Pouliot) Airport","City":"Gaspe","Country":"Canada","ICAO":"CYGP","Latitude":48.7752990723,"Longitude":-64.4785995483,"Altitude":112,"Timezone":"","DST":"A","TZ":"America/Toronto","Type":"airport","Source":"OurAirports"},{"AirportID":"","Name":"Geraldton Greenstone Regional Airport","City":"Geraldton","Country":"Canada","ICAO":"CYGQ","Latitude":49.77830123901367,"Longitude":-86.93939971923828,"Altitude":1144,"Timezone":"","DST":"A","TZ":"America/Toronto","Type":"airport","Source":"OurAirports"},{"AirportID":"","Name":"Îles-de-la-Madeleine Airport","City":"Iles De La Madeleine","Country":"Canada","ICAO":"CYGR","Latitude":47.42470169067383,"Longitude":-61.778099060058594,"Altitude":35,"Timezone":"","DST":"A","TZ":"America/Toronto","Type":"airport","Source":"OurAirports"},{"AirportID":"","Name":"Hudson Bay Airport","City":"Hudson Bay","Country":"Canada","ICAO":"CYHB","Latitude":52.8166999817,"Longitude":-102.310997009,"Altitude":1175,"Timezone":"","DST":"N","TZ":"America/Regina","Type":"airport","Source":"OurAirports"},{"AirportID":"","Name":"Dryden Regional Airport","City":"Dryden","Country":"Canada","ICAO":"CYHD","Latitude":49.83169937133789,"Longitude":-92.74420166015625,"Altitude":1354,"Timezone":"","DST":"A","TZ":"America/Winnipeg","Type":"airport","Source":"OurAirports"},{"AirportID":"","Name":"Ulukhaktok Holman Airport","City":"Holman Island","Country":"Canada","ICAO":"CYHI","Latitude":70.76280212402344,"Longitude":-117.80599975585938,"Altitude":117,"Timezone":"","DST":"A","TZ":"America/Edmonton","Type":"airport","Source":"OurAirports"},{"AirportID":"","Name":"Gjoa Haven Airport","City":"Gjoa Haven","Country":"Canada","ICAO":"CYHK","Latitude":68.635597229,"Longitude":-95.84970092770001,"Altitude":152,"Timezone":"","DST":"A","TZ":"America/Edmonton","Type":"airport","Source":"OurAirports"},{"AirportID":"","Name":"John C. Munro Hamilton International Airport","City":"Hamilton","Country":"Canada","ICAO":"CYHM","Latitude":43.173599243199995,"Longitude":-79.93499755859999,"Altitude":780,"Timezone":"","DST":"A","TZ":"America/Toronto","Type":"airport","Source":"OurAirports"},{"AirportID":"","Name":"Montréal / Saint-Hubert Airport","City":"Montreal","Country":"Canada","ICAO":"CYHU","Latitude":45.5175018311,"Longitude":-73.4169006348,"Altitude":90,"Timezone":"","DST":"A","TZ":"America/Toronto","Type":"airport","Source":"OurAirports"},{"AirportID":"","Name":"Hay River / Merlyn Carter Airport","City":"Hay River","Country":"Canada","ICAO":"CYHY","Latitude":60.8396987915,"Longitude":-115.782997131,"Altitude":541,"Timezone":"","DST":"A","TZ":"America/Edmonton","Type":"airport","Source":"OurAirports"},{"AirportID":"","Name":"Halifax / Stanfield International Airport","City":"Halifax","Country":"Canada","ICAO":"CYHZ","Latitude":44.8807983398,"Longitude":-63.5085983276,"Altitude":477,"Timezone":"","DST":"A","TZ":"America/Halifax","Type":"airport","Source":"OurAirports"},{"AirportID":"","Name":"Atikokan Municipal Airport","City":"Atikokan","Country":"Canada","ICAO":"CYIB","Latitude":48.7738990784,"Longitude":-91.6386032104,"Altitude":1408,"Timezone":"","DST":"A","TZ":"America/Coral_Harbour","Type":"airport","Source":"OurAirports"},{"AirportID":"","Name":"Pond Inlet Airport","City":"Pond Inlet","Country":"Canada","ICAO":"CYIO","Latitude":72.6832962036,"Longitude":-77.9666976929,"Altitude":181,"Timezone":"","DST":"A","TZ":"America/Toronto","Type":"airport","Source":"OurAirports"},{"AirportID":"","Name":"St Jean Airport","City":"St. Jean","Country":"Canada","ICAO":"CYJN","Latitude":45.29439926147461,"Longitude":-73.28109741210938,"Altitude":136,"Timezone":"","DST":"A","TZ":"America/Toronto","Type":"airport","Source":"OurAirports"},{"AirportID":"","Name":"Stephenville Airport","City":"Stephenville","Country":"Canada","ICAO":"CYJT","Latitude":48.5442008972168,"Longitude":-58.54999923706055,"Altitude":84,"Timezone":"3.","DST":"A","TZ":"America/St_Johns","Type":"airport","Source":"OurAirports"},{"AirportID":"","Name":"Kamloops Airport","City":"Kamloops","Country":"Canada","ICAO":"CYKA","Latitude":50.7022018433,"Longitude":-120.444000244,"Altitude":1133,"Timezone":"","DST":"A","TZ":"America/Vancouver","Type":"airport","Source":"OurAirports"},{"AirportID":"","Name":"Waterloo Airport","City":"Waterloo","Country":"Canada","ICAO":"CYKF","Latitude":43.460800170899994,"Longitude":-80.3786010742,"Altitude":1055,"Timezone":"","DST":"A","TZ":"America/Toronto","Type":"airport","Source":"OurAirports"},{"AirportID":"","Name":"Schefferville Airport","City":"Schefferville","Country":"Canada","ICAO":"CYKL","Latitude":54.805301666259766,"Longitude":-66.8052978515625,"Altitude":1709,"Timezone":"","DST":"A","TZ":"America/Toronto","Type":"airport","Source":"OurAirports"},{"AirportID":"","Name":"Kindersley Airport","City":"Kindersley","Country":"Canada","ICAO":"CYKY","Latitude":51.5175018311,"Longitude":-109.180999756,"Altitude":2277,"Timezone":"","DST":"N","TZ":"America/Regina","Type":"airport","Source":"OurAirports"},{"AirportID":"","Name":"Buttonville Municipal Airport","City":"Toronto","Country":"Canada","ICAO":"CYKZ","Latitude":43.86220169067383,"Longitude":-79.37000274658203,"Altitude":650,"Timezone":"","DST":"A","TZ":"America/Toronto","Type":"airport","Source":"OurAirports"},{"AirportID":"","Name":"Chapleau Airport","City":"Chapleau","Country":"Canada","ICAO":"CYLD","Latitude":47.81999969482422,"Longitude":-83.3467025756836,"Altitude":1470,"Timezone":"","DST":"A","TZ":"America/Toronto","Type":"airport","Source":"OurAirports"},{"AirportID":"","Name":"Meadow Lake Airport","City":"Meadow Lake","Country":"Canada","ICAO":"CYLJ","Latitude":54.125301361083984,"Longitude":-108.52300262451172,"Altitude":1576,"Timezone":"","DST":"N","TZ":"America/Regina","Type":"airport","Source":"OurAirports"},{"AirportID":"","Name":"Lloydminster Airport","City":"Lloydminster","Country":"Canada","ICAO":"CYLL","Latitude":53.309200286865234,"Longitude":-110.072998046875,"Altitude":2193,"Timezone":"","DST":"A","TZ":"America/Edmonton","Type":"airport","Source":"OurAirports"},{"AirportID":"","Name":"Alert Airport","City":"Alert","Country":"Canada","ICAO":"CYLT","Latitude":82.51779937740001,"Longitude":-62.2806015015,"Altitude":100,"Timezone":"","DST":"A","TZ":"America/Toronto","Type":"airport","Source":"OurAirports"},{"AirportID":"","Name":"Kelowna International Airport","City":"Kelowna","Country":"Canada","ICAO":"CYLW","Latitude":49.9561004639,"Longitude":-119.377998352,"Altitude":1421,"Timezone":"","DST":"A","TZ":"America/Vancouver","Type":"airport","Source":"OurAirports"},{"AirportID":"","Name":"Mayo Airport","City":"Mayo","Country":"Canada","ICAO":"CYMA","Latitude":63.61640167236328,"Longitude":-135.8679962158203,"Altitude":1653,"Timezone":"","DST":"A","TZ":"America/Vancouver","Type":"airport","Source":"OurAirports"},{"AirportID":"","Name":"Moose Jaw Air Vice Marshal C. M. McEwen Airport","City":"Moose Jaw","Country":"Canada","ICAO":"CYMJ","Latitude":50.330299377441406,"Longitude":-105.55899810791016,"Altitude":1892,"Timezone":"","DST":"N","TZ":"America/Regina","Type":"airport","Source":"OurAirports"},{"AirportID":"","Name":"Fort McMurray Airport","City":"Fort Mcmurray","Country":"Canada","ICAO":"CYMM","Latitude":56.653301239,"Longitude":-111.222000122,"Altitude":1211,"Timezone":"","DST":"A","TZ":"America/Edmonton","Type":"airport","Source":"OurAirports"},{"AirportID":"","Name":"Moosonee Airport","City":"Moosonee","Country":"Canada","ICAO":"CYMO","Latitude":51.291099548339844,"Longitude":-80.60780334472656,"Altitude":30,"Timezone":"","DST":"A","TZ":"America/Toronto","Type":"airport","Source":"OurAirports"},{"AirportID":"","Name":"Maniwaki Airport","City":"Maniwaki","Country":"Canada","ICAO":"CYMW","Latitude":46.2728004456,"Longitude":-75.9906005859,"Altitude":656,"Timezone":"","DST":"A","TZ":"America/Toronto","Type":"airport","Source":"OurAirports"},{"AirportID":"","Name":"Montreal International (Mirabel) Airport","City":"Montreal","Country":"Canada","ICAO":"CYMX","Latitude":45.6795005798,"Longitude":-74.0386962891,"Altitude":270,"Timezone":"","DST":"A","TZ":"America/Toronto","Type":"airport","Source":"OurAirports"},{"AirportID":"","Name":"Natashquan Airport","City":"Natashquan","Country":"Canada","ICAO":"CYNA","Latitude":50.189998626708984,"Longitude":-61.78919982910156,"Altitude":39,"Timezone":"","DST":"A","TZ":"America/Toronto","Type":"airport","Source":"OurAirports"},{"AirportID":"","Name":"Ottawa / Gatineau Airport","City":"Gatineau","Country":"Canada","ICAO":"CYND","Latitude":45.521701812699995,"Longitude":-75.5635986328,"Altitude":211,"Timezone":"","DST":"A","TZ":"America/Toronto","Type":"airport","Source":"OurAirports"},{"AirportID":"","Name":"Matagami Airport","City":"Matagami","Country":"Canada","ICAO":"CYNM","Latitude":49.76169967651367,"Longitude":-77.80280303955078,"Altitude":918,"Timezone":"","DST":"A","TZ":"America/Toronto","Type":"airport","Source":"OurAirports"},{"AirportID":"","Name":"Old Crow Airport","City":"Old Crow","Country":"Canada","ICAO":"CYOC","Latitude":67.57060241699219,"Longitude":-139.83900451660156,"Altitude":824,"Timezone":"","DST":"A","TZ":"America/Vancouver","Type":"airport","Source":"OurAirports"},{"AirportID":"","Name":"CFB Cold Lake","City":"Cold Lake","Country":"Canada","ICAO":"CYOD","Latitude":54.404998779296875,"Longitude":-110.27899932861328,"Altitude":1775,"Timezone":"","DST":"A","TZ":"America/Edmonton","Type":"airport","Source":"OurAirports"},{"AirportID":"","Name":"High Level Airport","City":"High Level","Country":"Canada","ICAO":"CYOJ","Latitude":58.62139892578125,"Longitude":-117.16500091552734,"Altitude":1110,"Timezone":"","DST":"A","TZ":"America/Edmonton","Type":"airport","Source":"OurAirports"},{"AirportID":"0","Name":"Ottawa Macdonald-Cartier International Airport","City":"Ottawa","Country":"Canada","ICAO":"CYOW","Latitude":45.3224983215332,"Longitude":-75.66919708251953,"Altitude":374,"Timezone":"","DST":"A","TZ":"America/Toronto","Type":"airport","Source":"OurAirports"},{"AirportID":"0","Name":"Prince Albert Glass Field","City":"Prince Albert","Country":"Canada","ICAO":"CYPA","Latitude":53.214199066199996,"Longitude":-105.672996521,"Altitude":1405,"Timezone":"","DST":"N","TZ":"America/Regina","Type":"airport","Source":"OurAirports"},{"AirportID":"0","Name":"Peace River Airport","City":"Peace River","Country":"Canada","ICAO":"CYPE","Latitude":56.226898193359375,"Longitude":-117.4469985961914,"Altitude":1873,"Timezone":"","DST":"A","TZ":"America/Edmonton","Type":"airport","Source":"OurAirports"},{"AirportID":"0","Name":"Southport Airport","City":"Portage-la-prairie","Country":"Canada","ICAO":"CYPG","Latitude":49.903099,"Longitude":-98.273817,"Altitude":885,"Timezone":"","DST":"A","TZ":"America/Winnipeg","Type":"airport","Source":"OurAirports"},{"AirportID":"0","Name":"Pitt Meadows Airport","City":"Pitt Meadows","Country":"Canada","ICAO":"CYPK","Latitude":49.21609878540039,"Longitude":-122.70999908447266,"Altitude":11,"Timezone":"","DST":"A","TZ":"America/Vancouver","Type":"airport","Source":"OurAirports"},{"AirportID":"0","Name":"Pickle Lake Airport","City":"Pickle Lake","Country":"Canada","ICAO":"CYPL","Latitude":51.4463996887207,"Longitude":-90.21420288085938,"Altitude":1267,"Timezone":"","DST":"A","TZ":"America/Coral_Harbour","Type":"airport","Source":"OurAirports"},{"AirportID":"0","Name":"Port Menier Airport","City":"Port Menier","Country":"Canada","ICAO":"CYPN","Latitude":49.83639907836914,"Longitude":-64.2885971069336,"Altitude":167,"Timezone":"","DST":"A","TZ":"America/Toronto","Type":"airport","Source":"OurAirports"},{"AirportID":"0","Name":"Peterborough Airport","City":"Peterborough","Country":"Canada","ICAO":"CYPQ","Latitude":44.22999954223633,"Longitude":-78.36329650878906,"Altitude":628,"Timezone":"","DST":"A","TZ":"America/Toronto","Type":"airport","Source":"OurAirports"},{"AirportID":"0","Name":"Prince Rupert Airport","City":"Prince Pupert","Country":"Canada","ICAO":"CYPR","Latitude":54.286098480199996,"Longitude":-130.445007324,"Altitude":116,"Timezone":"","DST":"A","TZ":"America/Vancouver","Type":"airport","Source":"OurAirports"},{"AirportID":"0","Name":"Fort Chipewyan Airport","City":"Fort Chipewyan","Country":"Canada","ICAO":"CYPY","Latitude":58.7672004699707,"Longitude":-111.11699676513672,"Altitude":761,"Timezone":"","DST":"A","TZ":"America/Edmonton","Type":"airport","Source":"OurAirports"},{"AirportID":"1","Name":"Muskoka Airport","City":"Muskoka","Country":"Canada","ICAO":"CYQA","Latitude":44.974700927734375,"Longitude":-79.30329895019531,"Altitude":925,"Timezone":"","DST":"A","TZ":"America/Toronto","Type":"airport","Source":"OurAirports"},{"AirportID":"1","Name":"Quebec Jean Lesage International Airport","City":"Quebec","Country":"Canada","ICAO":"CYQB","Latitude":46.7911,"Longitude":-71.393303,"Altitude":244,"Timezone":"","DST":"A","TZ":"America/Toronto","Type":"airport","Source":"OurAirports"},{"AirportID":"1","Name":"Red Deer Regional Airport","City":"Red Deer Industrial","Country":"Canada","ICAO":"CYQF","Latitude":52.18220138549805,"Longitude":-113.89399719238281,"Altitude":2968,"Timezone":"","DST":"A","TZ":"America/Edmonton","Type":"airport","Source":"OurAirports"},{"AirportID":"1","Name":"Windsor Airport","City":"Windsor","Country":"Canada","ICAO":"CYQG","Latitude":42.27560043334961,"Longitude":-82.95559692382812,"Altitude":622,"Timezone":"","DST":"A","TZ":"America/Toronto","Type":"airport","Source":"OurAirports"},{"AirportID":"1","Name":"Watson Lake Airport","City":"Watson Lake","Country":"Canada","ICAO":"CYQH","Latitude":60.11640167236328,"Longitude":-128.82200622558594,"Altitude":2255,"Timezone":"","DST":"A","TZ":"America/Vancouver","Type":"airport","Source":"OurAirports"},{"AirportID":"1","Name":"Kenora Airport","City":"Kenora","Country":"Canada","ICAO":"CYQK","Latitude":49.788299560546875,"Longitude":-94.36309814453125,"Altitude":1332,"Timezone":"","DST":"A","TZ":"America/Winnipeg","Type":"airport","Source":"OurAirports"},{"AirportID":"1","Name":"Lethbridge County Airport","City":"Lethbridge","Country":"Canada","ICAO":"CYQL","Latitude":49.6302986145,"Longitude":-112.800003052,"Altitude":3048,"Timezone":"","DST":"A","TZ":"America/Edmonton","Type":"airport","Source":"OurAirports"},{"AirportID":"1","Name":"Greater Moncton International Airport","City":"Moncton","Country":"Canada","ICAO":"CYQM","Latitude":46.11220169067383,"Longitude":-64.67859649658203,"Altitude":232,"Timezone":"","DST":"A","TZ":"America/Halifax","Type":"airport","Source":"OurAirports"},{"AirportID":"1","Name":"Comox Airport","City":"Comox","Country":"Canada","ICAO":"CYQQ","Latitude":49.71080017089844,"Longitude":-124.88700103759766,"Altitude":84,"Timezone":"","DST":"A","TZ":"America/Vancouver","Type":"airport","Source":"OurAirports"},{"AirportID":"2","Name":"Regina International Airport","City":"Regina","Country":"Canada","ICAO":"CYQR","Latitude":50.43190002441406,"Longitude":-104.66600036621094,"Altitude":1894,"Timezone":"","DST":"N","TZ":"America/Regina","Type":"airport","Source":"OurAirports"},{"AirportID":"2","Name":"Thunder Bay Airport","City":"Thunder Bay","Country":"Canada","ICAO":"CYQT","Latitude":48.37189865112305,"Longitude":-89.32389831542969,"Altitude":653,"Timezone":"","DST":"A","TZ":"America/Toronto","Type":"airport","Source":"OurAirports"},{"AirportID":"2","Name":"Grande Prairie Airport","City":"Grande Prairie","Country":"Canada","ICAO":"CYQU","Latitude":55.1796989441,"Longitude":-118.885002136,"Altitude":2195,"Timezone":"","DST":"A","TZ":"America/Edmonton","Type":"airport","Source":"OurAirports"},{"AirportID":"2","Name":"Yorkton Municipal Airport","City":"Yorkton","Country":"Canada","ICAO":"CYQV","Latitude":51.26470184326172,"Longitude":-102.46199798583984,"Altitude":1635,"Timezone":"","DST":"N","TZ":"America/Regina","Type":"airport","Source":"OurAirports"},{"AirportID":"2","Name":"North Battleford Airport","City":"North Battleford","Country":"Canada","ICAO":"CYQW","Latitude":52.76919937133789,"Longitude":-108.24400329589844,"Altitude":1799,"Timezone":"","DST":"N","TZ":"America/Regina","Type":"airport","Source":"OurAirports"},{"AirportID":"2","Name":"Gander International Airport","City":"Gander","Country":"Canada","ICAO":"CYQX","Latitude":48.9369010925293,"Longitude":-54.56809997558594,"Altitude":496,"Timezone":"3.","DST":"A","TZ":"America/St_Johns","Type":"airport","Source":"OurAirports"},{"AirportID":"2","Name":"Sydney / J.A. Douglas McCurdy Airport","City":"Sydney","Country":"Canada","ICAO":"CYQY","Latitude":46.161399841299996,"Longitude":-60.0477981567,"Altitude":203,"Timezone":"","DST":"A","TZ":"America/Halifax","Type":"airport","Source":"OurAirports"},{"AirportID":"2","Name":"Quesnel Airport","City":"Quesnel","Country":"Canada","ICAO":"CYQZ","Latitude":53.026100158691406,"Longitude":-122.51000213623047,"Altitude":1789,"Timezone":"","DST":"A","TZ":"America/Vancouver","Type":"airport","Source":"OurAirports"},{"AirportID":"2","Name":"Resolute Bay Airport","City":"Resolute","Country":"Canada","ICAO":"CYRB","Latitude":74.7169036865,"Longitude":-94.9693984985,"Altitude":215,"Timezone":"","DST":"A","TZ":"America/Winnipeg","Type":"airport","Source":"OurAirports"},{"AirportID":"2","Name":"Rivière-du-Loup Airport","City":"Riviere Du Loup","Country":"Canada","ICAO":"CYRI","Latitude":47.764400482177734,"Longitude":-69.58470153808594,"Altitude":427,"Timezone":"","DST":"A","TZ":"America/Toronto","Type":"airport","Source":"OurAirports"},{"AirportID":"3","Name":"Roberval Airport","City":"Roberval","Country":"Canada","ICAO":"CYRJ","Latitude":48.52000045776367,"Longitude":-72.2656021118164,"Altitude":586,"Timezone":"","DST":"A","TZ":"America/Toronto","Type":"airport","Source":"OurAirports"},{"AirportID":"3","Name":"Rocky Mountain House Airport","City":"Rocky Mountain House","Country":"Canada","ICAO":"CYRM","Latitude":52.4296989441,"Longitude":-114.903999329,"Altitude":3244,"Timezone":"","DST":"A","TZ":"America/Edmonton","Type":"airport","Source":"OurAirports"},{"AirportID":"3","Name":"Rankin Inlet Airport","City":"Rankin Inlet","Country":"Canada","ICAO":"CYRT","Latitude":62.8114013672,"Longitude":-92.1157989502,"Altitude":94,"Timezone":"","DST":"A","TZ":"America/Winnipeg","Type":"airport","Source":"OurAirports"},{"AirportID":"3","Name":"Sudbury Airport","City":"Sudbury","Country":"Canada","ICAO":"CYSB","Latitude":46.625,"Longitude":-80.79889678955078,"Altitude":1141,"Timezone":"","DST":"A","TZ":"America/Toronto","Type":"airport","Source":"OurAirports"},{"AirportID":"3","Name":"Sherbrooke Airport","City":"Sherbrooke","Country":"Canada","ICAO":"CYSC","Latitude":45.4385986328125,"Longitude":-71.69139862060547,"Altitude":792,"Timezone":"","DST":"A","TZ":"America/Toronto","Type":"airport","Source":"OurAirports"},{"AirportID":"3","Name":"Saint John Airport","City":"St. John","Country":"Canada","ICAO":"CYSJ","Latitude":45.31610107421875,"Longitude":-65.89029693603516,"Altitude":357,"Timezone":"","DST":"A","TZ":"America/Halifax","Type":"airport","Source":"OurAirports"},{"AirportID":"3","Name":"Fort Smith Airport","City":"Fort Smith","Country":"Canada","ICAO":"CYSM","Latitude":60.020301818847656,"Longitude":-111.96199798583984,"Altitude":671,"Timezone":"","DST":"A","TZ":"America/Edmonton","Type":"airport","Source":"OurAirports"},{"AirportID":"3","Name":"Nanisivik Airport","City":"Nanisivik","Country":"Canada","ICAO":"CYSR","Latitude":72.982201,"Longitude":-84.613602,"Altitude":2106,"Timezone":"","DST":"A","TZ":"America/Toronto","Type":"airport","Source":"OurAirports"},{"AirportID":"3","Name":"Summerside Airport","City":"Summerside","Country":"Canada","ICAO":"CYSU","Latitude":46.44060134887695,"Longitude":-63.83359909057617,"Altitude":56,"Timezone":"","DST":"A","TZ":"America/Halifax","Type":"airport","Source":"OurAirports"},{"AirportID":"3","Name":"Sachs Harbour (David Nasogaluak Jr. Saaryuaq) Airport","City":"Sachs Harbour","Country":"Canada","ICAO":"CYSY","Latitude":71.9938964844,"Longitude":-125.242996216,"Altitude":282,"Timezone":"","DST":"A","TZ":"America/Edmonton","Type":"airport","Source":"OurAirports"},{"AirportID":"4","Name":"Cape Dorset Airport","City":"Cape Dorset","Country":"Canada","ICAO":"CYTE","Latitude":64.2300033569,"Longitude":-76.5267028809,"Altitude":164,"Timezone":"","DST":"A","TZ":"America/Toronto","Type":"airport","Source":"OurAirports"},{"AirportID":"4","Name":"Thompson Airport","City":"Thompson","Country":"Canada","ICAO":"CYTH","Latitude":55.80110168457031,"Longitude":-97.86419677734375,"Altitude":729,"Timezone":"","DST":"A","TZ":"America/Winnipeg","Type":"airport","Source":"OurAirports"},{"AirportID":"4","Name":"CFB Trenton","City":"Trenton","Country":"Canada","ICAO":"CYTR","Latitude":44.118900299072266,"Longitude":-77.5280990600586,"Altitude":283,"Timezone":"","DST":"A","TZ":"America/Toronto","Type":"airport","Source":"OurAirports"},{"AirportID":"4","Name":"Timmins/Victor M. Power","City":"Timmins","Country":"Canada","ICAO":"CYTS","Latitude":48.569698333699996,"Longitude":-81.376701355,"Altitude":967,"Timezone":"","DST":"A","TZ":"America/Toronto","Type":"airport","Source":"OurAirports"},{"AirportID":"4","Name":"Billy Bishop Toronto City Centre Airport","City":"Toronto","Country":"Canada","ICAO":"CYTZ","Latitude":43.627499,"Longitude":-79.396202,"Altitude":252,"Timezone":"","DST":"A","TZ":"America/Toronto","Type":"airport","Source":"OurAirports"},{"AirportID":"4","Name":"Tuktoyaktuk Airport","City":"Tuktoyaktuk","Country":"Canada","ICAO":"CYUB","Latitude":69.43329620361328,"Longitude":-133.0260009765625,"Altitude":15,"Timezone":"","DST":"A","TZ":"America/Edmonton","Type":"airport","Source":"OurAirports"},{"AirportID":"4","Name":"Montreal / Pierre Elliott Trudeau International Airport","City":"Montreal","Country":"Canada","ICAO":"CYUL","Latitude":45.4706001282,"Longitude":-73.7407989502,"Altitude":118,"Timezone":"","DST":"A","TZ":"America/Toronto","Type":"airport","Source":"OurAirports"},{"AirportID":"4","Name":"Repulse Bay Airport","City":"Repulse Bay","Country":"Canada","ICAO":"CYUT","Latitude":66.5214004517,"Longitude":-86.22470092770001,"Altitude":80,"Timezone":"","DST":"A","TZ":"America/Winnipeg","Type":"airport","Source":"OurAirports"},{"AirportID":"4","Name":"Hall Beach Airport","City":"Hall Beach","Country":"Canada","ICAO":"CYUX","Latitude":68.77610015869999,"Longitude":-81.2425,"Altitude":30,"Timezone":"","DST":"A","TZ":"America/Toronto","Type":"airport","Source":"OurAirports"},{"AirportID":"4","Name":"Rouyn Noranda Airport","City":"Rouyn","Country":"Canada","ICAO":"CYUY","Latitude":48.20610046386719,"Longitude":-78.83560180664062,"Altitude":988,"Timezone":"","DST":"A","TZ":"America/Toronto","Type":"airport","Source":"OurAirports"},{"AirportID":"5","Name":"La Ronge Airport","City":"La Ronge","Country":"Canada","ICAO":"CYVC","Latitude":55.151401519800004,"Longitude":-105.262001038,"Altitude":1242,"Timezone":"","DST":"N","TZ":"America/Regina","Type":"airport","Source":"OurAirports"},{"AirportID":"5","Name":"Vermilion Airport","City":"Vermillion","Country":"Canada","ICAO":"CYVG","Latitude":53.355800628699996,"Longitude":-110.823997498,"Altitude":2025,"Timezone":"","DST":"A","TZ":"America/Edmonton","Type":"airport","Source":"OurAirports"},{"AirportID":"5","Name":"Qikiqtarjuaq Airport","City":"Broughton Island","Country":"Canada","ICAO":"CYVM","Latitude":67.5457992554,"Longitude":-64.03140258789999,"Altitude":21,"Timezone":"","DST":"A","TZ":"America/Toronto","Type":"airport","Source":"OurAirports"},{"AirportID":"5","Name":"Val-d'Or Airport","City":"Val D'or","Country":"Canada","ICAO":"CYVO","Latitude":48.0532989502,"Longitude":-77.7827987671,"Altitude":1107,"Timezone":"","DST":"A","TZ":"America/Toronto","Type":"airport","Source":"OurAirports"},{"AirportID":"5","Name":"Kuujjuaq Airport","City":"Quujjuaq","Country":"Canada","ICAO":"CYVP","Latitude":58.096099853515625,"Longitude":-68.4269027709961,"Altitude":129,"Timezone":"","DST":"A","TZ":"America/Toronto","Type":"airport","Source":"OurAirports"},{"AirportID":"5","Name":"Norman Wells Airport","City":"Norman Wells","Country":"Canada","ICAO":"CYVQ","Latitude":65.28160095214844,"Longitude":-126.7979965209961,"Altitude":238,"Timezone":"","DST":"A","TZ":"America/Edmonton","Type":"airport","Source":"OurAirports"},{"AirportID":"5","Name":"Vancouver International Airport","City":"Vancouver","Country":"Canada","ICAO":"CYVR","Latitude":49.193901062,"Longitude":-123.183998108,"Altitude":14,"Timezone":"","DST":"A","TZ":"America/Vancouver","Type":"airport","Source":"OurAirports"},{"AirportID":"5","Name":"Buffalo Narrows Airport","City":"Buffalo Narrows","Country":"Canada","ICAO":"CYVT","Latitude":55.8418998718,"Longitude":-108.417999268,"Altitude":1423,"Timezone":"","DST":"N","TZ":"America/Regina","Type":"airport","Source":"OurAirports"},{"AirportID":"5","Name":"Wiarton Airport","City":"Wiarton","Country":"Canada","ICAO":"CYVV","Latitude":44.7458,"Longitude":-81.107201,"Altitude":729,"Timezone":"","DST":"A","TZ":"America/Toronto","Type":"airport","Source":"OurAirports"},{"AirportID":"5","Name":"Petawawa Airport","City":"Petawawa","Country":"Canada","ICAO":"CYWA","Latitude":45.95220184326172,"Longitude":-77.31919860839844,"Altitude":427,"Timezone":"","DST":"A","TZ":"America/Toronto","Type":"airport","Source":"OurAirports"},{"AirportID":"6","Name":"Winnipeg / James Armstrong Richardson International Airport","City":"Winnipeg","Country":"Canada","ICAO":"CYWG","Latitude":49.909999847399995,"Longitude":-97.2398986816,"Altitude":783,"Timezone":"","DST":"A","TZ":"America/Winnipeg","Type":"airport","Source":"OurAirports"},{"AirportID":"6","Name":"Wabush Airport","City":"Wabush","Country":"Canada","ICAO":"CYWK","Latitude":52.92190170288086,"Longitude":-66.8644027709961,"Altitude":1808,"Timezone":"","DST":"A","TZ":"America/Halifax","Type":"airport","Source":"OurAirports"},{"AirportID":"6","Name":"Williams Lake Airport","City":"Williams Lake","Country":"Canada","ICAO":"CYWL","Latitude":52.1831016541,"Longitude":-122.054000854,"Altitude":3085,"Timezone":"","DST":"A","TZ":"America/Vancouver","Type":"airport","Source":"OurAirports"},{"AirportID":"6","Name":"Wrigley Airport","City":"Wrigley","Country":"Canada","ICAO":"CYWY","Latitude":63.20940017700195,"Longitude":-123.43699645996094,"Altitude":489,"Timezone":"","DST":"A","TZ":"America/Edmonton","Type":"airport","Source":"OurAirports"},{"AirportID":"6","Name":"Cranbrook/Canadian Rockies International Airport","City":"Cranbrook","Country":"Canada","ICAO":"CYXC","Latitude":49.610801696777,"Longitude":-115.78199768066,"Altitude":3082,"Timezone":"","DST":"A","TZ":"America/Edmonton","Type":"airport","Source":"OurAirports"},{"AirportID":"6","Name":"Edmonton City Centre (Blatchford Field) Airport","City":"Edmonton","Country":"Canada","ICAO":"CYXD","Latitude":53.5724983215,"Longitude":-113.521003723,"Altitude":2202,"Timezone":"","DST":"A","TZ":"America/Edmonton","Type":"airport","Source":"OurAirports"},{"AirportID":"6","Name":"Saskatoon John G. Diefenbaker International Airport","City":"Saskatoon","Country":"Canada","ICAO":"CYXE","Latitude":52.170799255371094,"Longitude":-106.69999694824219,"Altitude":1653,"Timezone":"","DST":"N","TZ":"America/Regina","Type":"airport","Source":"OurAirports"},{"AirportID":"6","Name":"Medicine Hat Airport","City":"Medicine Hat","Country":"Canada","ICAO":"CYXH","Latitude":50.01890182495117,"Longitude":-110.72100067138672,"Altitude":2352,"Timezone":"","DST":"A","TZ":"America/Edmonton","Type":"airport","Source":"OurAirports"},{"AirportID":"6","Name":"Fort St John Airport","City":"Fort Saint John","Country":"Canada","ICAO":"CYXJ","Latitude":56.23809814453125,"Longitude":-120.73999786376953,"Altitude":2280,"Timezone":"","DST":"A","TZ":"America/Dawson_Creek","Type":"airport","Source":"OurAirports"},{"AirportID":"6","Name":"Sioux Lookout Airport","City":"Sioux Lookout","Country":"Canada","ICAO":"CYXL","Latitude":50.11389923095703,"Longitude":-91.9052963256836,"Altitude":1258,"Timezone":"","DST":"A","TZ":"America/Winnipeg","Type":"airport","Source":"OurAirports"},{"AirportID":"7","Name":"Pangnirtung Airport","City":"Pangnirtung","Country":"Canada","ICAO":"CYXP","Latitude":66.1449966431,"Longitude":-65.71360015869999,"Altitude":75,"Timezone":"","DST":"A","TZ":"America/Toronto","Type":"airport","Source":"OurAirports"},{"AirportID":"7","Name":"Earlton (Timiskaming Regional) Airport","City":"Earlton","Country":"Canada","ICAO":"CYXR","Latitude":47.697400654599996,"Longitude":-79.8473453522,"Altitude":800,"Timezone":"","DST":"A","TZ":"America/Toronto","Type":"airport","Source":"OurAirports"},{"AirportID":"7","Name":"Prince George Airport","City":"Prince George","Country":"Canada","ICAO":"CYXS","Latitude":53.8894004822,"Longitude":-122.679000854,"Altitude":2267,"Timezone":"","DST":"A","TZ":"America/Vancouver","Type":"airport","Source":"OurAirports"},{"AirportID":"7","Name":"Northwest Regional Airport Terrace-Kitimat","City":"Terrace","Country":"Canada","ICAO":"CYXT","Latitude":54.468498,"Longitude":-128.576009,"Altitude":713,"Timezone":"","DST":"A","TZ":"America/Vancouver","Type":"airport","Source":"OurAirports"},{"AirportID":"7","Name":"London Airport","City":"London","Country":"Canada","ICAO":"CYXU","Latitude":43.035599,"Longitude":-81.1539,"Altitude":912,"Timezone":"","DST":"A","TZ":"America/Toronto","Type":"airport","Source":"OurAirports"},{"AirportID":"7","Name":"Abbotsford Airport","City":"Abbotsford","Country":"Canada","ICAO":"CYXX","Latitude":49.025299072265625,"Longitude":-122.36100006103516,"Altitude":195,"Timezone":"","DST":"A","TZ":"America/Vancouver","Type":"airport","Source":"OurAirports"},{"AirportID":"7","Name":"Whitehorse / Erik Nielsen International Airport","City":"Whitehorse","Country":"Canada","ICAO":"CYXY","Latitude":60.7095985413,"Longitude":-135.067001343,"Altitude":2317,"Timezone":"","DST":"A","TZ":"America/Vancouver","Type":"airport","Source":"OurAirports"},{"AirportID":"7","Name":"North Bay Airport","City":"North Bay","Country":"Canada","ICAO":"CYYB","Latitude":46.36360168457031,"Longitude":-79.42279815673828,"Altitude":1215,"Timezone":"","DST":"A","TZ":"America/Toronto","Type":"airport","Source":"OurAirports"},{"AirportID":"7","Name":"Calgary International Airport","City":"Calgary","Country":"Canada","ICAO":"CYYC","Latitude":51.113899231,"Longitude":-114.019996643,"Altitude":3557,"Timezone":"","DST":"A","TZ":"America/Edmonton","Type":"airport","Source":"OurAirports"},{"AirportID":"7","Name":"Smithers Airport","City":"Smithers","Country":"Canada","ICAO":"CYYD","Latitude":54.82469940185547,"Longitude":-127.18299865722656,"Altitude":1712,"Timezone":"","DST":"A","TZ":"America/Vancouver","Type":"airport","Source":"OurAirports"},{"AirportID":"8","Name":"Fort Nelson Airport","City":"Fort Nelson","Country":"Canada","ICAO":"CYYE","Latitude":58.8363990784,"Longitude":-122.597000122,"Altitude":1253,"Timezone":"","DST":"A","TZ":"America/Vancouver","Type":"airport","Source":"OurAirports"},{"AirportID":"8","Name":"Penticton Airport","City":"Penticton","Country":"Canada","ICAO":"CYYF","Latitude":49.46310043334961,"Longitude":-119.60199737548828,"Altitude":1129,"Timezone":"","DST":"A","TZ":"America/Vancouver","Type":"airport","Source":"OurAirports"},{"AirportID":"8","Name":"Charlottetown Airport","City":"Charlottetown","Country":"Canada","ICAO":"CYYG","Latitude":46.290000915527344,"Longitude":-63.12110137939453,"Altitude":160,"Timezone":"","DST":"A","TZ":"America/Halifax","Type":"airport","Source":"OurAirports"},{"AirportID":"8","Name":"Taloyoak Airport","City":"Spence Bay","Country":"Canada","ICAO":"CYYH","Latitude":69.5466995239,"Longitude":-93.5766983032,"Altitude":92,"Timezone":"","DST":"A","TZ":"America/Edmonton","Type":"airport","Source":"OurAirports"},{"AirportID":"8","Name":"Victoria International Airport","City":"Victoria","Country":"Canada","ICAO":"CYYJ","Latitude":48.646900177,"Longitude":-123.426002502,"Altitude":63,"Timezone":"","DST":"A","TZ":"America/Vancouver","Type":"airport","Source":"OurAirports"},{"AirportID":"8","Name":"Lynn Lake Airport","City":"Lynn Lake","Country":"Canada","ICAO":"CYYL","Latitude":56.86389923095703,"Longitude":-101.07599639892578,"Altitude":1170,"Timezone":"","DST":"A","TZ":"America/Winnipeg","Type":"airport","Source":"OurAirports"},{"AirportID":"8","Name":"Swift Current Airport","City":"Swift Current","Country":"Canada","ICAO":"CYYN","Latitude":50.291900634799994,"Longitude":-107.691001892,"Altitude":2680,"Timezone":"","DST":"N","TZ":"America/Regina","Type":"airport","Source":"OurAirports"},{"AirportID":"8","Name":"Churchill Airport","City":"Churchill","Country":"Canada","ICAO":"CYYQ","Latitude":58.739200592041016,"Longitude":-94.06500244140625,"Altitude":94,"Timezone":"","DST":"A","TZ":"America/Winnipeg","Type":"airport","Source":"OurAirports"},{"AirportID":"8","Name":"Goose Bay Airport","City":"Goose Bay","Country":"Canada","ICAO":"CYYR","Latitude":53.3191986084,"Longitude":-60.4258003235,"Altitude":160,"Timezone":"","DST":"A","TZ":"America/Halifax","Type":"airport","Source":"OurAirports"},{"AirportID":"8","Name":"St. John's International Airport","City":"St. John's","Country":"Canada","ICAO":"CYYT","Latitude":47.618598938,"Longitude":-52.7518997192,"Altitude":461,"Timezone":"3.","DST":"A","TZ":"America/St_Johns","Type":"airport","Source":"OurAirports"},{"AirportID":"9","Name":"Kapuskasing Airport","City":"Kapuskasing","Country":"Canada","ICAO":"CYYU","Latitude":49.41389846801758,"Longitude":-82.46749877929688,"Altitude":743,"Timezone":"","DST":"A","TZ":"America/Toronto","Type":"airport","Source":"OurAirports"},{"AirportID":"9","Name":"Armstrong Airport","City":"Armstrong","Country":"Canada","ICAO":"CYYW","Latitude":50.29029846191406,"Longitude":-88.90969848632812,"Altitude":1058,"Timezone":"","DST":"A","TZ":"America/Toronto","Type":"airport","Source":"OurAirports"},{"AirportID":"9","Name":"Mont Joli Airport","City":"Mont Joli","Country":"Canada","ICAO":"CYYY","Latitude":48.60860061645508,"Longitude":-68.20809936523438,"Altitude":172,"Timezone":"","DST":"A","TZ":"America/Toronto","Type":"airport","Source":"OurAirports"},{"AirportID":"9","Name":"Lester B. Pearson International Airport","City":"Toronto","Country":"Canada","ICAO":"CYYZ","Latitude":43.6772003174,"Longitude":-79.63059997559999,"Altitude":569,"Timezone":"","DST":"A","TZ":"America/Toronto","Type":"airport","Source":"OurAirports"},{"AirportID":"9","Name":"Downsview Airport","City":"Toronto","Country":"Canada","ICAO":"CYZD","Latitude":43.74250030517578,"Longitude":-79.4655990600586,"Altitude":652,"Timezone":"","DST":"A","TZ":"America/Toronto","Type":"airport","Source":"OurAirports"},{"AirportID":"9","Name":"Gore Bay Manitoulin Airport","City":"Gore Bay","Country":"Canada","ICAO":"CYZE","Latitude":45.88529968261719,"Longitude":-82.56780242919922,"Altitude":635,"Timezone":"","DST":"A","TZ":"America/Toronto","Type":"airport","Source":"OurAirports"},{"AirportID":"9","Name":"Yellowknife Airport","City":"Yellowknife","Country":"Canada","ICAO":"CYZF","Latitude":62.462799072265625,"Longitude":-114.44000244140625,"Altitude":675,"Timezone":"","DST":"A","TZ":"America/Edmonton","Type":"airport","Source":"OurAirports"},{"AirportID":"9","Name":"Slave Lake Airport","City":"Slave Lake","Country":"Canada","ICAO":"CYZH","Latitude":55.2930984497,"Longitude":-114.777000427,"Altitude":1912,"Timezone":"","DST":"A","TZ":"America/Edmonton","Type":"airport","Source":"OurAirports"},{"AirportID":"9","Name":"Sandspit Airport","City":"Sandspit","Country":"Canada","ICAO":"CYZP","Latitude":53.25429916379999,"Longitude":-131.813995361,"Altitude":21,"Timezone":"","DST":"A","TZ":"America/Vancouver","Type":"airport","Source":"OurAirports"},{"AirportID":"9","Name":"Chris Hadfield Airport","City":"Sarnia","Country":"Canada","ICAO":"CYZR","Latitude":42.9994010925293,"Longitude":-82.30889892578125,"Altitude":594,"Timezone":"","DST":"A","TZ":"America/Toronto","Type":"airport","Source":"OurAirports"},{"AirportID":"0","Name":"Port Hardy Airport","City":"Port Hardy","Country":"Canada","ICAO":"CYZT","Latitude":50.680599212646484,"Longitude":-127.36699676513672,"Altitude":71,"Timezone":"","DST":"A","TZ":"America/Vancouver","Type":"airport","Source":"OurAirports"},{"AirportID":"0","Name":"Whitecourt Airport","City":"Whitecourt","Country":"Canada","ICAO":"CYZU","Latitude":54.14390182495117,"Longitude":-115.78700256347656,"Altitude":2567,"Timezone":"","DST":"A","TZ":"America/Edmonton","Type":"airport","Source":"OurAirports"},{"AirportID":"0","Name":"Sept-Îles Airport","City":"Sept-iles","Country":"Canada","ICAO":"CYZV","Latitude":50.22330093383789,"Longitude":-66.2656021118164,"Altitude":180,"Timezone":"","DST":"A","TZ":"America/Toronto","Type":"airport","Source":"OurAirports"},{"AirportID":"0","Name":"Teslin Airport","City":"Teslin","Country":"Canada","ICAO":"CYZW","Latitude":60.17279815673828,"Longitude":-132.7429962158203,"Altitude":2313,"Timezone":"","DST":"A","TZ":"America/Vancouver","Type":"airport","Source":"OurAirports"},{"AirportID":"0","Name":"CFB Greenwood","City":"Greenwood","Country":"Canada","ICAO":"CYZX","Latitude":44.98440170288086,"Longitude":-64.91690063476562,"Altitude":92,"Timezone":"","DST":"A","TZ":"America/Halifax","Type":"airport","Source":"OurAirports"},{"AirportID":"0","Name":"Faro Airport","City":"Faro","Country":"Canada","ICAO":"CZFA","Latitude":62.20750045776367,"Longitude":-133.37600708007812,"Altitude":2351,"Timezone":"","DST":"A","TZ":"America/Vancouver","Type":"airport","Source":"OurAirports"},{"AirportID":"0","Name":"Fort Mcpherson Airport","City":"Fort Mcpherson","Country":"Canada","ICAO":"CZFM","Latitude":67.40750122070312,"Longitude":-134.86099243164062,"Altitude":116,"Timezone":"","DST":"A","TZ":"America/Edmonton","Type":"airport","Source":"OurAirports"},{"AirportID":"0","Name":"Blida Airport","City":"Blida","Country":"Algeria","ICAO":"DAAB","Latitude":36.50360107421875,"Longitude":2.8141698837280273,"Altitude":535,"Timezone":"1","DST":"N","TZ":"Africa/Algiers","Type":"airport","Source":"OurAirports"},{"AirportID":"0","Name":"Bou Saada Airport","City":"Bou Saada","Country":"Algeria","ICAO":"DAAD","Latitude":35.33250045776367,"Longitude":4.206389904022217,"Altitude":1506,"Timezone":"1","DST":"N","TZ":"Africa/Algiers","Type":"airport","Source":"OurAirports"},{"AirportID":"0","Name":"Soummam Airport","City":"Bejaja","Country":"Algeria","ICAO":"DAAE","Latitude":36.7120018005,"Longitude":5.0699200630200005,"Altitude":20,"Timezone":"1","DST":"N","TZ":"Africa/Algiers","Type":"airport","Source":"OurAirports"},{"AirportID":"1","Name":"Houari Boumediene Airport","City":"Algier","Country":"Algeria","ICAO":"DAAG","Latitude":36.691001892089844,"Longitude":3.215409994125366,"Altitude":82,"Timezone":"1","DST":"N","TZ":"Africa/Algiers","Type":"airport","Source":"OurAirports"},{"AirportID":"1","Name":"Djanet Inedbirene Airport","City":"Djanet","Country":"Algeria","ICAO":"DAAJ","Latitude":24.292800903299998,"Longitude":9.45244026184,"Altitude":3176,"Timezone":"1","DST":"N","TZ":"Africa/Algiers","Type":"airport","Source":"OurAirports"},{"AirportID":"1","Name":"Boufarik Airport","City":"Boufarik","Country":"Algeria","ICAO":"DAAK","Latitude":36.545799,"Longitude":2.87611,"Altitude":335,"Timezone":"1","DST":"N","TZ":"Africa/Algiers","Type":"airport","Source":"OurAirports"},{"AirportID":"1","Name":"Reggane Airport","City":"Reggan","Country":"Algeria","ICAO":"DAAN","Latitude":26.710100173950195,"Longitude":0.2856470048427582,"Altitude":955,"Timezone":"1","DST":"N","TZ":"Africa/Algiers","Type":"airport","Source":"OurAirports"},{"AirportID":"1","Name":"Illizi Takhamalt Airport","City":"Illizi","Country":"Algeria","ICAO":"DAAP","Latitude":26.7234992981,"Longitude":8.62265014648,"Altitude":1778,"Timezone":"1","DST":"N","TZ":"Africa/Algiers","Type":"airport","Source":"OurAirports"},{"AirportID":"1","Name":"Ain Oussera Airport","City":"Ain Oussera","Country":"Algeria","ICAO":"DAAQ","Latitude":35.52539825439453,"Longitude":2.8787100315093994,"Altitude":2132,"Timezone":"1","DST":"N","TZ":"Africa/Algiers","Type":"airport","Source":"OurAirports"},{"AirportID":"1","Name":"Aguenar – Hadj Bey Akhamok Airport","City":"Tamanrasset","Country":"Algeria","ICAO":"DAAT","Latitude":22.8115005493,"Longitude":5.45107984543,"Altitude":4518,"Timezone":"1","DST":"N","TZ":"Africa/Algiers","Type":"airport","Source":"OurAirports"},{"AirportID":"1","Name":"Jijel Ferhat Abbas Airport","City":"Jijel","Country":"Algeria","ICAO":"DAAV","Latitude":36.7951011658,"Longitude":5.87361001968,"Altitude":36,"Timezone":"1","DST":"N","TZ":"Africa/Algiers","Type":"airport","Source":"OurAirports"},{"AirportID":"1","Name":"Mecheria Airport","City":"Mecheria","Country":"Algeria","ICAO":"DAAY","Latitude":33.535900116,"Longitude":-0.242353007197,"Altitude":3855,"Timezone":"1","DST":"N","TZ":"Africa/Algiers","Type":"airport","Source":"OurAirports"},{"AirportID":"1","Name":"Relizane Airport","City":"Relizane","Country":"Algeria","ICAO":"DAAZ","Latitude":35.752201080322266,"Longitude":0.6262720227241516,"Altitude":282,"Timezone":"1","DST":"N","TZ":"Africa/Algiers","Type":"airport","Source":"OurAirports"},{"AirportID":"2","Name":"Annaba Airport","City":"Annaba","Country":"Algeria","ICAO":"DABB","Latitude":36.822200775146484,"Longitude":7.809169769287109,"Altitude":16,"Timezone":"1","DST":"N","TZ":"Africa/Algiers","Type":"airport","Source":"OurAirports"},{"AirportID":"2","Name":"Mohamed Boudiaf International Airport","City":"Constantine","Country":"Algeria","ICAO":"DABC","Latitude":36.2760009765625,"Longitude":6.620389938354492,"Altitude":2265,"Timezone":"1","DST":"N","TZ":"Africa/Algiers","Type":"airport","Source":"OurAirports"},{"AirportID":"2","Name":"Cheikh Larbi Tébessi Airport","City":"Tebessa","Country":"Algeria","ICAO":"DABS","Latitude":35.4315986633,"Longitude":8.12071990967,"Altitude":2661,"Timezone":"1","DST":"N","TZ":"Africa/Algiers","Type":"airport","Source":"OurAirports"},{"AirportID":"2","Name":"Hassi R'Mel Airport","City":"Tilrempt","Country":"Algeria","ICAO":"DAFH","Latitude":32.93040084838867,"Longitude":3.311539888381958,"Altitude":2540,"Timezone":"1","DST":"N","TZ":"Africa/Algiers","Type":"airport","Source":"OurAirports"},{"AirportID":"2","Name":"Bou Chekif Airport","City":"Tiaret","Country":"Algeria","ICAO":"DAOB","Latitude":35.3410987854,"Longitude":1.46315002441,"Altitude":3245,"Timezone":"1","DST":"N","TZ":"Africa/Algiers","Type":"airport","Source":"OurAirports"},{"AirportID":"2","Name":"Bou Sfer Airport","City":"Bou Sfer","Country":"Algeria","ICAO":"DAOE","Latitude":35.73540115356445,"Longitude":-0.8053889870643616,"Altitude":187,"Timezone":"1","DST":"N","TZ":"Africa/Algiers","Type":"airport","Source":"OurAirports"},{"AirportID":"2","Name":"Tindouf Airport","City":"Tindouf","Country":"Algeria","ICAO":"DAOF","Latitude":27.7003993988,"Longitude":-8.167099952700001,"Altitude":1453,"Timezone":"1","DST":"N","TZ":"Africa/Algiers","Type":"airport","Source":"OurAirports"},{"AirportID":"2","Name":"Ech Cheliff Airport","City":"Ech-cheliff","Country":"Algeria","ICAO":"DAOI","Latitude":36.2126998901,"Longitude":1.33176994324,"Altitude":463,"Timezone":"1","DST":"N","TZ":"Africa/Algiers","Type":"airport","Source":"OurAirports"},{"AirportID":"2","Name":"Tafaraoui Airport","City":"Oran","Country":"Algeria","ICAO":"DAOL","Latitude":35.54240036010742,"Longitude":-0.5322780013084412,"Altitude":367,"Timezone":"1","DST":"N","TZ":"Africa/Algiers","Type":"airport","Source":"OurAirports"},{"AirportID":"3","Name":"Zenata – Messali El Hadj Airport","City":"Tlemcen","Country":"Algeria","ICAO":"DAON","Latitude":35.0167007446,"Longitude":-1.45000004768,"Altitude":814,"Timezone":"1","DST":"N","TZ":"Africa/Algiers","Type":"airport","Source":"OurAirports"},{"AirportID":"3","Name":"Es Senia Airport","City":"Oran","Country":"Algeria","ICAO":"DAOO","Latitude":35.6239013672,"Longitude":-0.6211829781529999,"Altitude":295,"Timezone":"1","DST":"N","TZ":"Africa/Algiers","Type":"airport","Source":"OurAirports"},{"AirportID":"3","Name":"Sidi Bel Abbes Airport","City":"Sidi Bel Abbes","Country":"Algeria","ICAO":"DAOS","Latitude":35.1717987061,"Longitude":-0.593275010586,"Altitude":1614,"Timezone":"1","DST":"N","TZ":"Africa/Algiers","Type":"airport","Source":"OurAirports"},{"AirportID":"3","Name":"Ghriss Airport","City":"Ghriss","Country":"Algeria","ICAO":"DAOV","Latitude":35.207698822021484,"Longitude":0.14714199304580688,"Altitude":1686,"Timezone":"1","DST":"N","TZ":"Africa/Algiers","Type":"airport","Source":"OurAirports"},{"AirportID":"3","Name":"Touat Cheikh Sidi Mohamed Belkebir Airport","City":"Adrar","Country":"Algeria","ICAO":"DAUA","Latitude":27.837600708007812,"Longitude":-0.18641400337219238,"Altitude":919,"Timezone":"1","DST":"N","TZ":"Africa/Algiers","Type":"airport","Source":"OurAirports"},{"AirportID":"3","Name":"Biskra Airport","City":"Biskra","Country":"Algeria","ICAO":"DAUB","Latitude":34.793300628699996,"Longitude":5.73823022842,"Altitude":289,"Timezone":"1","DST":"N","TZ":"Africa/Algiers","Type":"airport","Source":"OurAirports"},{"AirportID":"3","Name":"El Golea Airport","City":"El Golea","Country":"Algeria","ICAO":"DAUE","Latitude":30.571300506591797,"Longitude":2.8595900535583496,"Altitude":1306,"Timezone":"1","DST":"N","TZ":"Africa/Algiers","Type":"airport","Source":"OurAirports"},{"AirportID":"3","Name":"Noumérat - Moufdi Zakaria Airport","City":"Ghardaia","Country":"Algeria","ICAO":"DAUG","Latitude":32.38410186767578,"Longitude":3.794110059738159,"Altitude":1512,"Timezone":"1","DST":"N","TZ":"Africa/Algiers","Type":"airport","Source":"OurAirports"},{"AirportID":"3","Name":"Oued Irara Airport","City":"Hassi Messaoud","Country":"Algeria","ICAO":"DAUH","Latitude":31.673000335699996,"Longitude":6.140439987180001,"Altitude":463,"Timezone":"1","DST":"N","TZ":"Africa/Algiers","Type":"airport","Source":"OurAirports"},{"AirportID":"3","Name":"In Salah Airport","City":"In Salah","Country":"Algeria","ICAO":"DAUI","Latitude":27.250999450699997,"Longitude":2.51202011108,"Altitude":896,"Timezone":"1","DST":"N","TZ":"Africa/Algiers","Type":"airport","Source":"OurAirports"},{"AirportID":"4","Name":"Touggourt Sidi Madhi Airport","City":"Touggourt","Country":"Algeria","ICAO":"DAUK","Latitude":33.06779861450195,"Longitude":6.088669776916504,"Altitude":279,"Timezone":"1","DST":"N","TZ":"Africa/Algiers","Type":"airport","Source":"OurAirports"},{"AirportID":"4","Name":"Laghouat Airport","City":"Laghouat","Country":"Algeria","ICAO":"DAUL","Latitude":33.764400482199996,"Longitude":2.92833995819,"Altitude":2510,"Timezone":"1","DST":"N","TZ":"Africa/Algiers","Type":"airport","Source":"OurAirports"},{"AirportID":"4","Name":"Timimoun Airport","City":"Timimoun","Country":"Algeria","ICAO":"DAUT","Latitude":29.2371006012,"Longitude":0.276033014059,"Altitude":1027,"Timezone":"1","DST":"N","TZ":"Africa/Algiers","Type":"airport","Source":"OurAirports"},{"AirportID":"4","Name":"Ain el Beida Airport","City":"Ouargla","Country":"Algeria","ICAO":"DAUU","Latitude":31.917200088500977,"Longitude":5.412779808044434,"Altitude":492,"Timezone":"1","DST":"N","TZ":"Africa/Algiers","Type":"airport","Source":"OurAirports"},{"AirportID":"4","Name":"In Aménas Airport","City":"Zarzaitine","Country":"Algeria","ICAO":"DAUZ","Latitude":28.0515003204,"Longitude":9.64291000366,"Altitude":1847,"Timezone":"1","DST":"N","TZ":"Africa/Algiers","Type":"airport","Source":"OurAirports"},{"AirportID":"4","Name":"Cadjehoun Airport","City":"Cotonou","Country":"Benin","ICAO":"DBBB","Latitude":6.357230186462402,"Longitude":2.384350061416626,"Altitude":19,"Timezone":"1","DST":"N","TZ":"Africa/Porto-Novo","Type":"airport","Source":"OurAirports"},{"AirportID":"4","Name":"Ouagadougou Airport","City":"Ouagadougou","Country":"Burkina Faso","ICAO":"DFFD","Latitude":12.35319995880127,"Longitude":-1.5124200582504272,"Altitude":1037,"Timezone":"0","DST":"N","TZ":"Africa/Ouagadougou","Type":"airport","Source":"OurAirports"},{"AirportID":"4","Name":"Bobo Dioulasso Airport","City":"Bobo-dioulasso","Country":"Burkina Faso","ICAO":"DFOO","Latitude":11.160099983215332,"Longitude":-4.33096981048584,"Altitude":1511,"Timezone":"0","DST":"N","TZ":"Africa/Ouagadougou","Type":"airport","Source":"OurAirports"},{"AirportID":"4","Name":"Kotoka International Airport","City":"Accra","Country":"Ghana","ICAO":"DGAA","Latitude":5.605189800262451,"Longitude":-0.16678600013256073,"Altitude":205,"Timezone":"0","DST":"N","TZ":"Africa/Accra","Type":"airport","Source":"OurAirports"},{"AirportID":"4","Name":"Tamale Airport","City":"Tamale","Country":"Ghana","ICAO":"DGLE","Latitude":9.55718994140625,"Longitude":-0.8632140159606934,"Altitude":553,"Timezone":"0","DST":"N","TZ":"Africa/Accra","Type":"airport","Source":"OurAirports"},{"AirportID":"5","Name":"Wa Airport","City":"Wa","Country":"Ghana","ICAO":"DGLW","Latitude":10.0826997756958,"Longitude":-2.507689952850342,"Altitude":1060,"Timezone":"0","DST":"N","TZ":"Africa/Accra","Type":"airport","Source":"OurAirports"},{"AirportID":"5","Name":"Sunyani Airport","City":"Sunyani","Country":"Ghana","ICAO":"DGSN","Latitude":7.361830234527588,"Longitude":-2.3287599086761475,"Altitude":1014,"Timezone":"0","DST":"N","TZ":"Africa/Accra","Type":"airport","Source":"OurAirports"},{"AirportID":"5","Name":"Takoradi Airport","City":"Takoradi","Country":"Ghana","ICAO":"DGTK","Latitude":4.896059989929199,"Longitude":-1.7747600078582764,"Altitude":21,"Timezone":"0","DST":"N","TZ":"Africa/Accra","Type":"airport","Source":"OurAirports"},{"AirportID":"5","Name":"Port Bouet Airport","City":"Abidjan","Country":"Cote d'Ivoire","ICAO":"DIAP","Latitude":5.261390209197998,"Longitude":-3.9262900352478027,"Altitude":21,"Timezone":"0","DST":"N","TZ":"Africa/Abidjan","Type":"airport","Source":"OurAirports"},{"AirportID":"5","Name":"Bouaké Airport","City":"Bouake","Country":"Cote d'Ivoire","ICAO":"DIBK","Latitude":7.738800048828125,"Longitude":-5.073669910430908,"Altitude":1230,"Timezone":"0","DST":"N","TZ":"Africa/Abidjan","Type":"airport","Source":"OurAirports"},{"AirportID":"5","Name":"Daloa Airport","City":"Daloa","Country":"Cote d'Ivoire","ICAO":"DIDL","Latitude":6.792809963226318,"Longitude":-6.473189830780029,"Altitude":823,"Timezone":"0","DST":"N","TZ":"Africa/Abidjan","Type":"airport","Source":"OurAirports"},{"AirportID":"5","Name":"Korhogo Airport","City":"Korhogo","Country":"Cote d'Ivoire","ICAO":"DIKO","Latitude":9.38718032837,"Longitude":-5.55666017532,"Altitude":1214,"Timezone":"0","DST":"N","TZ":"Africa/Abidjan","Type":"airport","Source":"OurAirports"},{"AirportID":"5","Name":"Man Airport","City":"Man","Country":"Cote d'Ivoire","ICAO":"DIMN","Latitude":7.272069931030273,"Longitude":-7.58735990524292,"Altitude":1089,"Timezone":"0","DST":"N","TZ":"Africa/Abidjan","Type":"airport","Source":"OurAirports"},{"AirportID":"5","Name":"San Pedro Airport","City":"San Pedro","Country":"Cote d'Ivoire","ICAO":"DISP","Latitude":4.746719837188721,"Longitude":-6.660820007324219,"Altitude":26,"Timezone":"0","DST":"N","TZ":"Africa/Abidjan","Type":"airport","Source":"OurAirports"},{"AirportID":"5","Name":"Yamoussoukro Airport","City":"Yamoussoukro","Country":"Cote d'Ivoire","ICAO":"DIYO","Latitude":6.9031701088,"Longitude":-5.36558008194,"Altitude":699,"Timezone":"0","DST":"N","TZ":"Africa/Abidjan","Type":"airport","Source":"OurAirports"},{"AirportID":"6","Name":"Nnamdi Azikiwe International Airport","City":"Abuja","Country":"Nigeria","ICAO":"DNAA","Latitude":9.006790161132812,"Longitude":7.263169765472412,"Altitude":1123,"Timezone":"1","DST":"N","TZ":"Africa/Lagos","Type":"airport","Source":"OurAirports"},{"AirportID":"6","Name":"Akure Airport","City":"Akure","Country":"Nigeria","ICAO":"DNAK","Latitude":7.246739864349365,"Longitude":5.3010101318359375,"Altitude":1100,"Timezone":"1","DST":"N","TZ":"Africa/Lagos","Type":"airport","Source":"OurAirports"},{"AirportID":"6","Name":"Benin Airport","City":"Benin","Country":"Nigeria","ICAO":"DNBE","Latitude":6.316979885101318,"Longitude":5.5995001792907715,"Altitude":258,"Timezone":"1","DST":"N","TZ":"Africa/Lagos","Type":"airport","Source":"OurAirports"},{"AirportID":"6","Name":"Margaret Ekpo International Airport","City":"Calabar","Country":"Nigeria","ICAO":"DNCA","Latitude":4.976019859313965,"Longitude":8.347200393676758,"Altitude":210,"Timezone":"1","DST":"N","TZ":"Africa/Lagos","Type":"airport","Source":"OurAirports"},{"AirportID":"6","Name":"Akanu Ibiam International Airport","City":"Enugu","Country":"Nigeria","ICAO":"DNEN","Latitude":6.474269866943359,"Longitude":7.561960220336914,"Altitude":466,"Timezone":"1","DST":"N","TZ":"Africa/Lagos","Type":"airport","Source":"OurAirports"},{"AirportID":"6","Name":"Gusau Airport","City":"Gusau","Country":"Nigeria","ICAO":"DNGU","Latitude":12.171699523925781,"Longitude":6.696109771728516,"Altitude":1520,"Timezone":"1","DST":"N","TZ":"Africa/Lagos","Type":"airport","Source":"OurAirports"},{"AirportID":"6","Name":"Ibadan Airport","City":"Ibadan","Country":"Nigeria","ICAO":"DNIB","Latitude":7.362460136413574,"Longitude":3.97832989692688,"Altitude":725,"Timezone":"1","DST":"N","TZ":"Africa/Lagos","Type":"airport","Source":"OurAirports"},{"AirportID":"6","Name":"Ilorin International Airport","City":"Ilorin","Country":"Nigeria","ICAO":"DNIL","Latitude":8.440210342407227,"Longitude":4.493919849395752,"Altitude":1126,"Timezone":"1","DST":"N","TZ":"Africa/Lagos","Type":"airport","Source":"OurAirports"},{"AirportID":"6","Name":"Yakubu Gowon Airport","City":"Jos","Country":"Nigeria","ICAO":"DNJO","Latitude":9.639829635620117,"Longitude":8.869050025939941,"Altitude":4232,"Timezone":"1","DST":"N","TZ":"Africa/Lagos","Type":"airport","Source":"OurAirports"},{"AirportID":"6","Name":"Kaduna Airport","City":"Kaduna","Country":"Nigeria","ICAO":"DNKA","Latitude":10.696000099182129,"Longitude":7.320109844207764,"Altitude":2073,"Timezone":"1","DST":"N","TZ":"Africa/Lagos","Type":"airport","Source":"OurAirports"},{"AirportID":"7","Name":"Mallam Aminu International Airport","City":"Kano","Country":"Nigeria","ICAO":"DNKN","Latitude":12.047599792480469,"Longitude":8.524620056152344,"Altitude":1562,"Timezone":"1","DST":"N","TZ":"Africa/Lagos","Type":"airport","Source":"OurAirports"},{"AirportID":"7","Name":"Maiduguri International Airport","City":"Maiduguri","Country":"Nigeria","ICAO":"DNMA","Latitude":11.855299949645996,"Longitude":13.080900192260742,"Altitude":1099,"Timezone":"1","DST":"N","TZ":"Africa/Lagos","Type":"airport","Source":"OurAirports"},{"AirportID":"7","Name":"Makurdi Airport","City":"Makurdi","Country":"Nigeria","ICAO":"DNMK","Latitude":7.7038798332214355,"Longitude":8.613940238952637,"Altitude":371,"Timezone":"1","DST":"N","TZ":"Africa/Lagos","Type":"airport","Source":"OurAirports"},{"AirportID":"7","Name":"Murtala Muhammed International Airport","City":"Lagos","Country":"Nigeria","ICAO":"DNMM","Latitude":6.5773701667785645,"Longitude":3.321160078048706,"Altitude":135,"Timezone":"1","DST":"N","TZ":"Africa/Lagos","Type":"airport","Source":"OurAirports"},{"AirportID":"7","Name":"Minna Airport","City":"Minna","Country":"Nigeria","ICAO":"DNMN","Latitude":9.652170181274414,"Longitude":6.462259769439697,"Altitude":834,"Timezone":"1","DST":"N","TZ":"Africa/Lagos","Type":"airport","Source":"OurAirports"},{"AirportID":"7","Name":"Port Harcourt International Airport","City":"Port Hartcourt","Country":"Nigeria","ICAO":"DNPO","Latitude":5.0154900550842285,"Longitude":6.94959020614624,"Altitude":87,"Timezone":"1","DST":"N","TZ":"Africa/Lagos","Type":"airport","Source":"OurAirports"},{"AirportID":"7","Name":"Sadiq Abubakar III International Airport","City":"Sokoto","Country":"Nigeria","ICAO":"DNSO","Latitude":12.916299819946289,"Longitude":5.207190036773682,"Altitude":1010,"Timezone":"1","DST":"N","TZ":"Africa/Lagos","Type":"airport","Source":"OurAirports"},{"AirportID":"7","Name":"Yola Airport","City":"Yola","Country":"Nigeria","ICAO":"DNYO","Latitude":9.257550239562988,"Longitude":12.430399894714355,"Altitude":599,"Timezone":"1","DST":"N","TZ":"Africa/Lagos","Type":"airport","Source":"OurAirports"},{"AirportID":"7","Name":"Zaria Airport","City":"Zaria","Country":"Nigeria","ICAO":"DNZA","Latitude":11.130200386047363,"Longitude":7.685810089111328,"Altitude":2170,"Timezone":"1","DST":"N","TZ":"Africa/Lagos","Type":"airport","Source":"OurAirports"},{"AirportID":"7","Name":"Maradi Airport","City":"Maradi","Country":"Niger","ICAO":"DRRM","Latitude":13.5024995803833,"Longitude":7.1267499923706055,"Altitude":1240,"Timezone":"1","DST":"N","TZ":"Africa/Niamey","Type":"airport","Source":"OurAirports"},{"AirportID":"8","Name":"Diori Hamani International Airport","City":"Niamey","Country":"Niger","ICAO":"DRRN","Latitude":13.481499671936035,"Longitude":2.183609962463379,"Altitude":732,"Timezone":"1","DST":"N","TZ":"Africa/Niamey","Type":"airport","Source":"OurAirports"},{"AirportID":"8","Name":"Tahoua Airport","City":"Tahoua","Country":"Niger","ICAO":"DRRT","Latitude":14.875699996948242,"Longitude":5.265359878540039,"Altitude":1266,"Timezone":"1","DST":"N","TZ":"Africa/Niamey","Type":"airport","Source":"OurAirports"},{"AirportID":"8","Name":"Mano Dayak International Airport","City":"Agadez","Country":"Niger","ICAO":"DRZA","Latitude":16.965999603271484,"Longitude":8.000109672546387,"Altitude":1657,"Timezone":"1","DST":"N","TZ":"Africa/Niamey","Type":"airport","Source":"OurAirports"},{"AirportID":"8","Name":"Dirkou Airport","City":"Dirkou","Country":"Niger","ICAO":"DRZD","Latitude":18.968700408935547,"Longitude":12.86870002746582,"Altitude":1273,"Timezone":"1","DST":"N","TZ":"Africa/Niamey","Type":"airport","Source":"OurAirports"},{"AirportID":"8","Name":"Diffa Airport","City":"Diffa","Country":"Niger","ICAO":"DRZF","Latitude":13.372900009155273,"Longitude":12.626700401306152,"Altitude":994,"Timezone":"1","DST":"N","TZ":"Africa/Niamey","Type":"airport","Source":"OurAirports"},{"AirportID":"8","Name":"Zinder Airport","City":"Zinder","Country":"Niger","ICAO":"DRZR","Latitude":13.779000282287598,"Longitude":8.983759880065918,"Altitude":1516,"Timezone":"1","DST":"N","TZ":"Africa/Niamey","Type":"airport","Source":"OurAirports"},{"AirportID":"8","Name":"Monastir Habib Bourguiba International Airport","City":"Monastir","Country":"Tunisia","ICAO":"DTMB","Latitude":35.75809860229492,"Longitude":10.75469970703125,"Altitude":9,"Timezone":"1","DST":"E","TZ":"Africa/Tunis","Type":"airport","Source":"OurAirports"},{"AirportID":"8","Name":"Tunis Carthage International Airport","City":"Tunis","Country":"Tunisia","ICAO":"DTTA","Latitude":36.85100173950195,"Longitude":10.22719955444336,"Altitude":22,"Timezone":"1","DST":"E","TZ":"Africa/Tunis","Type":"airport","Source":"OurAirports"},{"AirportID":"8","Name":"Sidi Ahmed Air Base","City":"Bizerte","Country":"Tunisia","ICAO":"DTTB","Latitude":37.2453994751,"Longitude":9.79144954681,"Altitude":20,"Timezone":"1","DST":"E","TZ":"Africa/Tunis","Type":"airport","Source":"OurAirports"},{"AirportID":"8","Name":"Remada Air Base","City":"Remada","Country":"Tunisia","ICAO":"DTTD","Latitude":32.30619812011719,"Longitude":10.382100105285645,"Altitude":1004,"Timezone":"1","DST":"E","TZ":"Africa/Tunis","Type":"airport","Source":"OurAirports"},{"AirportID":"9","Name":"Gafsa Ksar International Airport","City":"Gafsa","Country":"Tunisia","ICAO":"DTTF","Latitude":34.422000885009766,"Longitude":8.822500228881836,"Altitude":1060,"Timezone":"1","DST":"E","TZ":"Africa/Tunis","Type":"airport","Source":"OurAirports"},{"AirportID":"9","Name":"Gabès Matmata International Airport","City":"Gabes","Country":"Tunisia","ICAO":"DTTG","Latitude":33.87689971923828,"Longitude":10.103300094604492,"Altitude":26,"Timezone":"1","DST":"E","TZ":"Africa/Tunis","Type":"airport","Source":"OurAirports"},{"AirportID":"9","Name":"Borj El Amri Airport","City":"Bordj El Amri","Country":"Tunisia","ICAO":"DTTI","Latitude":36.72129821777344,"Longitude":9.94314956665039,"Altitude":110,"Timezone":"1","DST":"E","TZ":"Africa/Tunis","Type":"airport","Source":"OurAirports"},{"AirportID":"9","Name":"Djerba Zarzis International Airport","City":"Djerba","Country":"Tunisia","ICAO":"DTTJ","Latitude":33.875,"Longitude":10.775500297546387,"Altitude":19,"Timezone":"1","DST":"E","TZ":"Africa/Tunis","Type":"airport","Source":"OurAirports"},{"AirportID":"9","Name":"El Borma Airport","City":"El Borma","Country":"Tunisia","ICAO":"DTTR","Latitude":31.704299926757812,"Longitude":9.254619598388672,"Altitude":827,"Timezone":"1","DST":"E","TZ":"Africa/Tunis","Type":"airport","Source":"OurAirports"},{"AirportID":"9","Name":"Sfax Thyna International Airport","City":"Sfax","Country":"Tunisia","ICAO":"DTTX","Latitude":34.71799850463867,"Longitude":10.690999984741211,"Altitude":85,"Timezone":"1","DST":"E","TZ":"Africa/Tunis","Type":"airport","Source":"OurAirports"},{"AirportID":"9","Name":"Tozeur Nefta International Airport","City":"Tozeur","Country":"Tunisia","ICAO":"DTTZ","Latitude":33.939701080322266,"Longitude":8.110560417175293,"Altitude":287,"Timezone":"1","DST":"E","TZ":"Africa/Tunis","Type":"airport","Source":"OurAirports"},{"AirportID":"9","Name":"Niamtougou International Airport","City":"Niatougou","Country":"Togo","ICAO":"DXNG","Latitude":9.767330169677734,"Longitude":1.091249942779541,"Altitude":1515,"Timezone":"0","DST":"N","TZ":"Africa/Lome","Type":"airport","Source":"OurAirports"},{"AirportID":"9","Name":"Lomé-Tokoin Airport","City":"Lome","Country":"Togo","ICAO":"DXXX","Latitude":6.165609836578369,"Longitude":1.2545100450515747,"Altitude":72,"Timezone":"0","DST":"N","TZ":"Africa/Lome","Type":"airport","Source":"OurAirports"},{"AirportID":"9","Name":"Antwerp International Airport (Deurne)","City":"Antwerp","Country":"Belgium","ICAO":"EBAW","Latitude":51.1893997192,"Longitude":4.46027994156,"Altitude":39,"Timezone":"1","DST":"E","TZ":"Europe/Brussels","Type":"airport","Source":"OurAirports"},{"AirportID":"0","Name":"Beauvechain Air Base","City":"Beauvechain","Country":"Belgium","ICAO":"EBBE","Latitude":50.75859832763672,"Longitude":4.768330097198486,"Altitude":370,"Timezone":"1","DST":"E","TZ":"Europe/Brussels","Type":"airport","Source":"OurAirports"},{"AirportID":"0","Name":"Kleine Brogel Air Base","City":"Kleine Brogel","Country":"Belgium","ICAO":"EBBL","Latitude":51.168301,"Longitude":5.47,"Altitude":200,"Timezone":"1","DST":"E","TZ":"Europe/Brussels","Type":"airport","Source":"OurAirports"},{"AirportID":"0","Name":"Brussels Airport","City":"Brussels","Country":"Belgium","ICAO":"EBBR","Latitude":50.901401519800004,"Longitude":4.48443984985,"Altitude":184,"Timezone":"1","DST":"E","TZ":"Europe/Brussels","Type":"airport","Source":"OurAirports"},{"AirportID":"0","Name":"Jehonville Air Base","City":"Bertrix","Country":"Belgium","ICAO":"EBBX","Latitude":49.891700744628906,"Longitude":5.2238898277282715,"Altitude":1514,"Timezone":"1","DST":"E","TZ":"Europe/Brussels","Type":"airport","Source":"OurAirports"},{"AirportID":"0","Name":"Brussels South Charleroi Airport","City":"Charleroi","Country":"Belgium","ICAO":"EBCI","Latitude":50.459201812699995,"Longitude":4.45382022858,"Altitude":614,"Timezone":"1","DST":"E","TZ":"Europe/Brussels","Type":"airport","Source":"OurAirports"},{"AirportID":"0","Name":"Chièvres Air Base","City":"Chievres","Country":"Belgium","ICAO":"EBCV","Latitude":50.575801849365234,"Longitude":3.8310000896453857,"Altitude":194,"Timezone":"1","DST":"E","TZ":"Europe/Brussels","Type":"airport","Source":"OurAirports"},{"AirportID":"0","Name":"Koksijde Air Base","City":"Koksijde","Country":"Belgium","ICAO":"EBFN","Latitude":51.090301513671875,"Longitude":2.652780055999756,"Altitude":20,"Timezone":"1","DST":"E","TZ":"Europe/Brussels","Type":"airport","Source":"OurAirports"},{"AirportID":"0","Name":"Florennes Air Base","City":"Florennes","Country":"Belgium","ICAO":"EBFS","Latitude":50.2433013916,"Longitude":4.64583015442,"Altitude":935,"Timezone":"1","DST":"E","TZ":"Europe/Brussels","Type":"airport","Source":"OurAirports"},{"AirportID":"0","Name":"Wevelgem Airport","City":"Kortrijk-vevelgem","Country":"Belgium","ICAO":"EBKT","Latitude":50.817199707,"Longitude":3.20472002029,"Altitude":64,"Timezone":"1","DST":"E","TZ":"Europe/Brussels","Type":"airport","Source":"OurAirports"},{"AirportID":"0","Name":"Liège Airport","City":"Liege","Country":"Belgium","ICAO":"EBLG","Latitude":50.63740158081055,"Longitude":5.443220138549805,"Altitude":659,"Timezone":"1","DST":"E","TZ":"Europe/Brussels","Type":"airport","Source":"OurAirports"},{"AirportID":"1","Name":"Ostend-Bruges International Airport","City":"Ostend","Country":"Belgium","ICAO":"EBOS","Latitude":51.198898315399994,"Longitude":2.8622200489,"Altitude":13,"Timezone":"1","DST":"E","TZ":"Europe/Brussels","Type":"airport","Source":"OurAirports"},{"AirportID":"1","Name":"Zutendaal Air Base","City":"Zutendaal","Country":"Belgium","ICAO":"EBSL","Latitude":50.9474983215332,"Longitude":5.590559959411621,"Altitude":312,"Timezone":"1","DST":"E","TZ":"Europe/Brussels","Type":"airport","Source":"OurAirports"},{"AirportID":"1","Name":"Limburg Regional Airport","City":"Sint-truiden","Country":"Belgium","ICAO":"EBST","Latitude":50.791900634799994,"Longitude":5.20167016983,"Altitude":246,"Timezone":"1","DST":"E","TZ":"Europe/Brussels","Type":"airport","Source":"OurAirports"},{"AirportID":"1","Name":"Saint Hubert Air Base","City":"St.-hubert","Country":"Belgium","ICAO":"EBSU","Latitude":50.034400939941406,"Longitude":5.440810203552246,"Altitude":1930,"Timezone":"1","DST":"E","TZ":"Europe/Brussels","Type":"airport","Source":"OurAirports"},{"AirportID":"1","Name":"Ursel Air Base","City":"Ursel","Country":"Belgium","ICAO":"EBUL","Latitude":51.14419937133789,"Longitude":3.475559949874878,"Altitude":95,"Timezone":"1","DST":"E","TZ":"Europe/Brussels","Type":"airport","Source":"OurAirports"},{"AirportID":"1","Name":"Weelde Air Base","City":"Weelde","Country":"Belgium","ICAO":"EBWE","Latitude":51.394798278808594,"Longitude":4.9601898193359375,"Altitude":105,"Timezone":"1","DST":"E","TZ":"Europe/Brussels","Type":"airport","Source":"OurAirports"},{"AirportID":"1","Name":"Oostmalle Air Base","City":"Zoersel","Country":"Belgium","ICAO":"EBZR","Latitude":51.264702,"Longitude":4.75333,"Altitude":53,"Timezone":"1","DST":"E","TZ":"Europe/Brussels","Type":"airport","Source":"OurAirports"},{"AirportID":"1","Name":"Bautzen Airport","City":"Bautzen","Country":"Germany","ICAO":"EDAB","Latitude":51.19361114501953,"Longitude":14.519721984863281,"Altitude":568,"Timezone":"1","DST":"E","TZ":"Europe/Berlin","Type":"airport","Source":"OurAirports"},{"AirportID":"1","Name":"Altenburg-Nobitz Airport","City":"Altenburg","Country":"Germany","ICAO":"EDAC","Latitude":50.9819450378418,"Longitude":12.506388664245605,"Altitude":640,"Timezone":"1","DST":"E","TZ":"Europe/Berlin","Type":"airport","Source":"OurAirports"},{"AirportID":"1","Name":"Dessau Airport","City":"Dessau","Country":"Germany","ICAO":"EDAD","Latitude":51.831693541,"Longitude":12.1909618378,"Altitude":187,"Timezone":"1","DST":"E","TZ":"Europe/Berlin","Type":"airport","Source":"OurAirports"},{"AirportID":"2","Name":"Eisenhüttenstadt Airport","City":"Eisenhuettenstadt","Country":"Germany","ICAO":"EDAE","Latitude":52.195856,"Longitude":14.58753,"Altitude":144,"Timezone":"1","DST":"E","TZ":"Europe/Berlin","Type":"airport","Source":"OurAirports"},{"AirportID":"2","Name":"Großenhain Airport","City":"Suhl","Country":"Germany","ICAO":"EDAK","Latitude":51.30805587768555,"Longitude":13.555556297302246,"Altitude":417,"Timezone":"1","DST":"E","TZ":"Europe/Berlin","Type":"airport","Source":"OurAirports"},{"AirportID":"2","Name":"Merseburg Airport","City":"Muehlhausen","Country":"Germany","ICAO":"EDAM","Latitude":51.3630556,"Longitude":11.9408333,"Altitude":341,"Timezone":"1","DST":"E","TZ":"Europe/Berlin","Type":"airport","Source":"OurAirports"},{"AirportID":"2","Name":"Halle-Oppin Airport","City":"Halle","Country":"Germany","ICAO":"EDAQ","Latitude":51.552223,"Longitude":12.053889,"Altitude":348,"Timezone":"1","DST":"E","TZ":"Europe/Berlin","Type":"airport","Source":"OurAirports"},{"AirportID":"2","Name":"Riesa-Göhlis Airport","City":"Riesa","Country":"Germany","ICAO":"EDAU","Latitude":51.2936096191,"Longitude":13.3561105728,"Altitude":322,"Timezone":"1","DST":"E","TZ":"Europe/Berlin","Type":"airport","Source":"OurAirports"},{"AirportID":"2","Name":"Rechlin-Lärz Airport","City":"Rechlin-laerz","Country":"Germany","ICAO":"EDAX","Latitude":53.306388855,"Longitude":12.7522220612,"Altitude":220,"Timezone":"1","DST":"E","TZ":"Europe/Berlin","Type":"airport","Source":"OurAirports"},{"AirportID":"2","Name":"Strausberg Airport","City":"Strausberg","Country":"Germany","ICAO":"EDAY","Latitude":52.5805549621582,"Longitude":13.916666984558105,"Altitude":262,"Timezone":"1","DST":"E","TZ":"Europe/Berlin","Type":"airport","Source":"OurAirports"},{"AirportID":"2","Name":"Schönhagen Airport","City":"Schoenhagen","Country":"Germany","ICAO":"EDAZ","Latitude":52.2036094666,"Longitude":13.1563892365,"Altitude":131,"Timezone":"1","DST":"E","TZ":"Europe/Berlin","Type":"airport","Source":"OurAirports"},{"AirportID":"2","Name":"Barth Airport","City":"Barth","Country":"Germany","ICAO":"EDBH","Latitude":54.338253,"Longitude":12.710515,"Altitude":23,"Timezone":"1","DST":"E","TZ":"Europe/Berlin","Type":"airport","Source":"OurAirports"},{"AirportID":"3","Name":"Jena-Schöngleina Airport","City":"Jena","Country":"Germany","ICAO":"EDBJ","Latitude":50.915279388427734,"Longitude":11.714444160461426,"Altitude":1247,"Timezone":"1","DST":"E","TZ":"Europe/Berlin","Type":"airport","Source":"OurAirports"},{"AirportID":"3","Name":"Kyritz Airport","City":"Kyritz","Country":"Germany","ICAO":"EDBK","Latitude":52.918888092041016,"Longitude":12.425277709960938,"Altitude":131,"Timezone":"1","DST":"E","TZ":"Europe/Berlin","Type":"airport","Source":"OurAirports"},{"AirportID":"3","Name":"Magdeburg \\\"City\\\" Airport","City":"Magdeburg","Country":"Germany","ICAO":"EDBM","Latitude":52.073612,"Longitude":11.626389,"Altitude":259,"Timezone":"1","DST":"E","TZ":"Europe/Berlin","Type":"airport","Source":"OurAirports"},{"AirportID":"3","Name":"Rothenburg/Görlitz Airport","City":"Rothenburg/ol","Country":"Germany","ICAO":"EDBR","Latitude":51.36333465576172,"Longitude":14.949999809265137,"Altitude":518,"Timezone":"1","DST":"E","TZ":"Europe/Berlin","Type":"airport","Source":"OurAirports"},{"AirportID":"3","Name":"Anklam Airport","City":"Anklam","Country":"Germany","ICAO":"EDCA","Latitude":53.83277893066406,"Longitude":13.668610572814941,"Altitude":16,"Timezone":"1","DST":"E","TZ":"Europe/Berlin","Type":"airport","Source":"OurAirports"},{"AirportID":"3","Name":"Cottbus-Drewitz Airport","City":"Cottbus","Country":"Germany","ICAO":"EDCD","Latitude":51.889442,"Longitude":14.531944,"Altitude":272,"Timezone":"1","DST":"E","TZ":"Europe/Berlin","Type":"airport","Source":"OurAirports"},{"AirportID":"3","Name":"Kamenz Airport","City":"Kamenz","Country":"Germany","ICAO":"EDCM","Latitude":51.29694366455078,"Longitude":14.1274995803833,"Altitude":495,"Timezone":"1","DST":"E","TZ":"Europe/Berlin","Type":"airport","Source":"OurAirports"},{"AirportID":"3","Name":"Berlin-Schönefeld International Airport","City":"Berlin","Country":"Germany","ICAO":"EDDB","Latitude":52.380001068115,"Longitude":13.522500038147,"Altitude":157,"Timezone":"1","DST":"E","TZ":"Europe/Berlin","Type":"airport","Source":"OurAirports"},{"AirportID":"3","Name":"Dresden Airport","City":"Dresden","Country":"Germany","ICAO":"EDDC","Latitude":51.1328010559082,"Longitude":13.767200469970703,"Altitude":755,"Timezone":"1","DST":"E","TZ":"Europe/Berlin","Type":"airport","Source":"OurAirports"},{"AirportID":"3","Name":"Erfurt Airport","City":"Erfurt","Country":"Germany","ICAO":"EDDE","Latitude":50.979801177978516,"Longitude":10.958100318908691,"Altitude":1036,"Timezone":"1","DST":"E","TZ":"Europe/Berlin","Type":"airport","Source":"OurAirports"},{"AirportID":"4","Name":"Frankfurt am Main International Airport","City":"Frankfurt","Country":"Germany","ICAO":"EDDF","Latitude":50.0333333,"Longitude":8.5705556,"Altitude":364,"Timezone":"1","DST":"E","TZ":"Europe/Berlin","Type":"airport","Source":"OurAirports"},{"AirportID":"4","Name":"Münster Osnabrück Airport","City":"Munster","Country":"Germany","ICAO":"EDDG","Latitude":52.134601593,"Longitude":7.68483018875,"Altitude":160,"Timezone":"1","DST":"E","TZ":"Europe/Berlin","Type":"airport","Source":"OurAirports"},{"AirportID":"4","Name":"Hamburg Airport","City":"Hamburg","Country":"Germany","ICAO":"EDDH","Latitude":53.630401611328,"Longitude":9.9882297515869,"Altitude":53,"Timezone":"1","DST":"E","TZ":"Europe/Berlin","Type":"airport","Source":"OurAirports"},{"AirportID":"4","Name":"Berlin-Tempelhof International Airport","City":"Berlin","Country":"Germany","ICAO":"EDDI","Latitude":52.472999572753906,"Longitude":13.403900146484375,"Altitude":167,"Timezone":"1","DST":"E","TZ":"Europe/Berlin","Type":"airport","Source":"OurAirports"},{"AirportID":"4","Name":"Cologne Bonn Airport","City":"Cologne","Country":"Germany","ICAO":"EDDK","Latitude":50.8658981323,"Longitude":7.1427397728,"Altitude":302,"Timezone":"1","DST":"E","TZ":"Europe/Berlin","Type":"airport","Source":"OurAirports"},{"AirportID":"4","Name":"Düsseldorf International Airport","City":"Duesseldorf","Country":"Germany","ICAO":"EDDL","Latitude":51.28950119018555,"Longitude":6.766779899597168,"Altitude":147,"Timezone":"1","DST":"E","TZ":"Europe/Berlin","Type":"airport","Source":"OurAirports"},{"AirportID":"4","Name":"Munich International Airport","City":"Munich","Country":"Germany","ICAO":"EDDM","Latitude":48.353801727295,"Longitude":11.786100387573,"Altitude":1487,"Timezone":"1","DST":"E","TZ":"Europe/Berlin","Type":"airport","Source":"OurAirports"},{"AirportID":"4","Name":"Nuremberg Airport","City":"Nuernberg","Country":"Germany","ICAO":"EDDN","Latitude":49.498699,"Longitude":11.0780556,"Altitude":1046,"Timezone":"1","DST":"E","TZ":"Europe/Berlin","Type":"airport","Source":"OurAirports"},{"AirportID":"4","Name":"Leipzig Halle Airport","City":"Leipzig","Country":"Germany","ICAO":"EDDP","Latitude":51.4238889,"Longitude":12.2363889,"Altitude":465,"Timezone":"1","DST":"E","TZ":"Europe/Berlin","Type":"airport","Source":"OurAirports"},{"AirportID":"4","Name":"Saarbrücken Airport","City":"Saarbruecken","Country":"Germany","ICAO":"EDDR","Latitude":49.214599609400004,"Longitude":7.10950994492,"Altitude":1058,"Timezone":"1","DST":"E","TZ":"Europe/Berlin","Type":"airport","Source":"OurAirports"},{"AirportID":"5","Name":"Stuttgart Airport","City":"Stuttgart","Country":"Germany","ICAO":"EDDS","Latitude":48.689899444599995,"Longitude":9.22196006775,"Altitude":1276,"Timezone":"1","DST":"E","TZ":"Europe/Berlin","Type":"airport","Source":"OurAirports"},{"AirportID":"5","Name":"Berlin-Tegel International Airport","City":"Berlin","Country":"Germany","ICAO":"EDDT","Latitude":52.5597000122,"Longitude":13.2876996994,"Altitude":122,"Timezone":"1","DST":"E","TZ":"Europe/Berlin","Type":"airport","Source":"OurAirports"},{"AirportID":"5","Name":"Hannover Airport","City":"Hannover","Country":"Germany","ICAO":"EDDV","Latitude":52.461101532,"Longitude":9.685079574580001,"Altitude":183,"Timezone":"1","DST":"E","TZ":"Europe/Berlin","Type":"airport","Source":"OurAirports"},{"AirportID":"5","Name":"Bremen Airport","City":"Bremen","Country":"Germany","ICAO":"EDDW","Latitude":53.0475006104,"Longitude":8.78666973114,"Altitude":14,"Timezone":"1","DST":"E","TZ":"Europe/Berlin","Type":"airport","Source":"OurAirports"},{"AirportID":"5","Name":"Frankfurt-Egelsbach Airport","City":"Egelsbach","Country":"Germany","ICAO":"EDFE","Latitude":49.959999084472656,"Longitude":8.645833015441895,"Altitude":384,"Timezone":"1","DST":"E","TZ":"Europe/Berlin","Type":"airport","Source":"OurAirports"},{"AirportID":"5","Name":"Frankfurt-Hahn Airport","City":"Hahn","Country":"Germany","ICAO":"EDFH","Latitude":49.948699951200005,"Longitude":7.263889789579999,"Altitude":1649,"Timezone":"1","DST":"E","TZ":"Europe/Berlin","Type":"airport","Source":"OurAirports"},{"AirportID":"5","Name":"Mannheim-City Airport","City":"Mannheim","Country":"Germany","ICAO":"EDFM","Latitude":49.47305679321289,"Longitude":8.514166831970215,"Altitude":308,"Timezone":"1","DST":"E","TZ":"Europe/Berlin","Type":"airport","Source":"OurAirports"},{"AirportID":"5","Name":"Allendorf/Eder Airport","City":"Allendorf","Country":"Germany","ICAO":"EDFQ","Latitude":51.03499984741211,"Longitude":8.680832862854004,"Altitude":1158,"Timezone":"1","DST":"E","TZ":"Europe/Berlin","Type":"airport","Source":"OurAirports"},{"AirportID":"5","Name":"Worms Airport","City":"Worms","Country":"Germany","ICAO":"EDFV","Latitude":49.606945,"Longitude":8.368333,"Altitude":295,"Timezone":"1","DST":"E","TZ":"Europe/Berlin","Type":"airport","Source":"OurAirports"},{"AirportID":"5","Name":"Mainz-Finthen Airport","City":"Mainz","Country":"Germany","ICAO":"EDFZ","Latitude":49.967499,"Longitude":8.147222,"Altitude":525,"Timezone":"1","DST":"E","TZ":"Europe/Berlin","Type":"airport","Source":"OurAirports"},{"AirportID":"6","Name":"Eisenach-Kindel Airport","City":"Eisenach","Country":"Germany","ICAO":"EDGE","Latitude":50.991604,"Longitude":10.47973,"Altitude":1112,"Timezone":"1","DST":"E","TZ":"Europe/Berlin","Type":"airport","Source":"OurAirports"},{"AirportID":"6","Name":"Siegerland Airport","City":"Siegerland","Country":"Germany","ICAO":"EDGS","Latitude":50.707698822021484,"Longitude":8.082969665527344,"Altitude":1966,"Timezone":"1","DST":"E","TZ":"Europe/Berlin","Type":"airport","Source":"OurAirports"},{"AirportID":"6","Name":"Hamburg-Finkenwerder Airport","City":"Hamburg","Country":"Germany","ICAO":"EDHI","Latitude":53.5352783203125,"Longitude":9.835556030273438,"Altitude":23,"Timezone":"1","DST":"E","TZ":"Europe/Berlin","Type":"airport","Source":"OurAirports"},{"AirportID":"6","Name":"Kiel-Holtenau Airport","City":"Kiel","Country":"Germany","ICAO":"EDHK","Latitude":54.37944412231445,"Longitude":10.145277976989746,"Altitude":102,"Timezone":"1","DST":"E","TZ":"Europe/Berlin","Type":"airport","Source":"OurAirports"},{"AirportID":"6","Name":"Lübeck Blankensee Airport","City":"Luebeck","Country":"Germany","ICAO":"EDHL","Latitude":53.8054008484,"Longitude":10.7192001343,"Altitude":53,"Timezone":"1","DST":"E","TZ":"Europe/Berlin","Type":"airport","Source":"OurAirports"},{"AirportID":"6","Name":"Flugplatz Dahlemer Binz","City":"Dahlemer Binz","Country":"Germany","ICAO":"EDKV","Latitude":50.405555725,"Longitude":6.5288891792,"Altitude":1896,"Timezone":"1","DST":"E","TZ":"Europe/Berlin","Type":"airport","Source":"OurAirports"},{"AirportID":"6","Name":"Meinerzhagen Airport","City":"Meinerzhagen","Country":"Germany","ICAO":"EDKZ","Latitude":51.099998474121094,"Longitude":7.599999904632568,"Altitude":1549,"Timezone":"1","DST":"E","TZ":"Europe/Berlin","Type":"airport","Source":"OurAirports"},{"AirportID":"6","Name":"Arnsberg-Menden Airport","City":"Arnsberg","Country":"Germany","ICAO":"EDLA","Latitude":51.483890533447266,"Longitude":7.8983330726623535,"Altitude":794,"Timezone":"1","DST":"E","TZ":"Europe/Berlin","Type":"airport","Source":"OurAirports"},{"AirportID":"6","Name":"Essen Mulheim Airport","City":"Essen","Country":"Germany","ICAO":"EDLE","Latitude":51.40230178833008,"Longitude":6.9373297691345215,"Altitude":424,"Timezone":"1","DST":"E","TZ":"Europe/Berlin","Type":"airport","Source":"OurAirports"},{"AirportID":"6","Name":"Bielefeld Airport","City":"Bielefeld","Country":"Germany","ICAO":"EDLI","Latitude":51.9647216797,"Longitude":8.544444084170001,"Altitude":433,"Timezone":"1","DST":"E","TZ":"Europe/Berlin","Type":"airport","Source":"OurAirports"},{"AirportID":"7","Name":"Mönchengladbach Airport","City":"Moenchengladbach","Country":"Germany","ICAO":"EDLN","Latitude":51.23027801513672,"Longitude":6.504444122314453,"Altitude":125,"Timezone":"1","DST":"E","TZ":"Europe/Berlin","Type":"airport","Source":"OurAirports"},{"AirportID":"7","Name":"Paderborn Lippstadt Airport","City":"Paderborn","Country":"Germany","ICAO":"EDLP","Latitude":51.614101409899995,"Longitude":8.616319656369999,"Altitude":699,"Timezone":"1","DST":"E","TZ":"Europe/Berlin","Type":"airport","Source":"OurAirports"},{"AirportID":"7","Name":"Stadtlohn-Vreden Airport","City":"Stadtlohn","Country":"Germany","ICAO":"EDLS","Latitude":51.99583435058594,"Longitude":6.8405561447143555,"Altitude":157,"Timezone":"1","DST":"E","TZ":"Europe/Berlin","Type":"airport","Source":"OurAirports"},{"AirportID":"7","Name":"Dortmund Airport","City":"Dortmund","Country":"Germany","ICAO":"EDLW","Latitude":51.51829910279999,"Longitude":7.61223983765,"Altitude":425,"Timezone":"1","DST":"E","TZ":"Europe/Berlin","Type":"airport","Source":"OurAirports"},{"AirportID":"7","Name":"Augsburg Airport","City":"Augsburg","Country":"Germany","ICAO":"EDMA","Latitude":48.425278,"Longitude":10.931667,"Altitude":1516,"Timezone":"1","DST":"E","TZ":"Europe/Berlin","Type":"airport","Source":"OurAirports"},{"AirportID":"7","Name":"Biberach a.d. Riß Airport","City":"Biberach","Country":"Germany","ICAO":"EDMB","Latitude":48.11111068725586,"Longitude":9.762778282165527,"Altitude":1903,"Timezone":"1","DST":"E","TZ":"Europe/Berlin","Type":"airport","Source":"OurAirports"},{"AirportID":"7","Name":"Eggenfelden Airport","City":"Eggenfelden","Country":"Germany","ICAO":"EDME","Latitude":48.39611053466797,"Longitude":12.723610877990723,"Altitude":1342,"Timezone":"1","DST":"E","TZ":"Europe/Berlin","Type":"airport","Source":"OurAirports"},{"AirportID":"7","Name":"Mindelheim-Mattsies Airport","City":"Mindelheim","Country":"Germany","ICAO":"EDMN","Latitude":48.1069450378418,"Longitude":10.524999618530273,"Altitude":1857,"Timezone":"1","DST":"E","TZ":"Europe/Berlin","Type":"airport","Source":"OurAirports"},{"AirportID":"7","Name":"Oberpfaffenhofen Airport","City":"Oberpfaffenhofen","Country":"Germany","ICAO":"EDMO","Latitude":48.08140182495117,"Longitude":11.283100128173828,"Altitude":1947,"Timezone":"1","DST":"E","TZ":"Europe/Berlin","Type":"airport","Source":"OurAirports"},{"AirportID":"7","Name":"Straubing Airport","City":"Straubing","Country":"Germany","ICAO":"EDMS","Latitude":48.90083312988281,"Longitude":12.516667366027832,"Altitude":1047,"Timezone":"1","DST":"E","TZ":"Europe/Berlin","Type":"airport","Source":"OurAirports"},{"AirportID":"8","Name":"Vilshofen Airport","City":"Vilshofen","Country":"Germany","ICAO":"EDMV","Latitude":48.6349983215332,"Longitude":13.195555686950684,"Altitude":991,"Timezone":"1","DST":"E","TZ":"Europe/Berlin","Type":"airport","Source":"OurAirports"},{"AirportID":"8","Name":"Leutkirch-Unterzeil Airport","City":"Leutkirch","Country":"Germany","ICAO":"EDNL","Latitude":47.858890533447266,"Longitude":10.014166831970215,"Altitude":2100,"Timezone":"1","DST":"E","TZ":"Europe/Berlin","Type":"airport","Source":"OurAirports"},{"AirportID":"8","Name":"Friedrichshafen Airport","City":"Friedrichshafen","Country":"Germany","ICAO":"EDNY","Latitude":47.671298980699994,"Longitude":9.51148986816,"Altitude":1367,"Timezone":"1","DST":"E","TZ":"Europe/Berlin","Type":"airport","Source":"OurAirports"},{"AirportID":"8","Name":"Schwerin Parchim Airport","City":"Parchim","Country":"Germany","ICAO":"EDOP","Latitude":53.426998,"Longitude":11.7834,"Altitude":166,"Timezone":"1","DST":"E","TZ":"Europe/Berlin","Type":"airport","Source":"OurAirports"},{"AirportID":"8","Name":"Stendal-Borstel Airport","City":"Stendal","Country":"Germany","ICAO":"EDOV","Latitude":52.62888717651367,"Longitude":11.818611145019531,"Altitude":184,"Timezone":"1","DST":"E","TZ":"Europe/Berlin","Type":"airport","Source":"OurAirports"},{"AirportID":"8","Name":"Aalen-Heidenheim/Elchingen Airport","City":"Aalen-heidenheim","Country":"Germany","ICAO":"EDPA","Latitude":48.77777862548828,"Longitude":10.264721870422363,"Altitude":1916,"Timezone":"1","DST":"E","TZ":"Europe/Berlin","Type":"airport","Source":"OurAirports"},{"AirportID":"8","Name":"Bayreuth Airport","City":"Bayreuth","Country":"Germany","ICAO":"EDQD","Latitude":49.98500061035156,"Longitude":11.640000343322754,"Altitude":1601,"Timezone":"1","DST":"E","TZ":"Europe/Berlin","Type":"airport","Source":"OurAirports"},